{
  "business": [
    {
      "business_id": "goog_ChIJSWd57GjPupQR9fEQv1z4qJU",
      "google_place_id": "ChIJSWd57GjPupQR9fEQv1z4qJU",
      "name": "Bendita Oficina",
      "category": "Servi√ßos",
      "description": "Servi√ßos em Uberaba. Classifica√ß√£o: 5‚≠ê (32 avalia√ß√µes). O que dizem: \"Top\"",
      "whatsapp": "(34) 3317-5273",
      "website": "",
      "latitude": -19.7593221,
      "longitude": -47.9099413,
      "street": "Avenida Manoel da Silva Santos",
      "number": "74",
      "neighborhood": "Nossa Senhora da Abadia",
      "city": "Uberaba",
      "state": "MG",
      "zip_code": "38026-505",
      "address": "Av. Manoel da Silva Santos, 74 - Nossa Sra. da Abadia, Uberaba - MG, 38026-505, Brazil",
      "open_time": "08:00",
      "close_time": "18:00",
      "forced_status": null,
      "is_premium": false,
      "verified": true,
      "rating": 5,
      "review_count": 32,
      "created_at": 1764637118184,
      "owner_id": "admin_import"
    },
    {
      "business_id": "goog_ChIJp7F2g0fQupQR59ygouOHQB4",
      "google_place_id": "ChIJp7F2g0fQupQR59ygouOHQB4",
      "name": "Auto Mec√¢nica Daytona",
      "category": "Servi√ßos",
      "description": "Servi√ßos em Uberaba. Classifica√ß√£o: 4.5‚≠ê (31 avalia√ß√µes). O que dizem: \"Equipe competente e atenciosa! Mec√¢nicos que explicam e orientam!\"",
      "whatsapp": "3336-3480",
      "website": "",
      "latitude": -19.7609231,
      "longitude": -47.939288,
      "street": "Avenida Capit√£o Manoel Prata",
      "number": "1026",
      "neighborhood": "S√£o Benedito",
      "city": "Uberaba",
      "state": "MG",
      "zip_code": "38022-120",
      "address": "Av. Cap. Manoel Prata, 1026 - S√£o Benedito, Uberaba - MG, 38022-120, Brazil",
      "open_time": "08:00",
      "close_time": "18:00",
      "forced_status": null,
      "is_premium": false,
      "verified": true,
      "rating": 4.5,
      "review_count": 31,
      "created_at": 1764637118530,
      "owner_id": "admin_import"
    },
    {
      "business_id": "goog_ChIJS0iuPavRupQRxzzw0WPIDDA",
      "google_place_id": "ChIJS0iuPavRupQRxzzw0WPIDDA",
      "name": "Oficina do Paulinho",
      "category": "Servi√ßos",
      "description": "Servi√ßos em Uberaba. Classifica√ß√£o: 4.8‚≠ê (85 avalia√ß√µes). O que dizem: \"Top\"",
      "whatsapp": "(34) 3311-5982",
      "website": "",
      "latitude": -19.751727,
      "longitude": -47.9580364,
      "street": "Rua Vin√≠cius de Morais",
      "number": "125",
      "neighborhood": "Universit√°rio",
      "city": "Uberaba",
      "state": "MG",
      "zip_code": "38050-560",
      "address": "R. Vin√≠cius de Morais, 125 - Universit√°rio, Uberaba - MG, 38050-560, Brazil",
      "open_time": "08:00",
      "close_time": "18:00",
      "forced_status": null,
      "is_premium": false,
      "verified": true,
      "rating": 4.8,
      "review_count": 85,
      "created_at": 1764637118901,
      "owner_id": "admin_import"
    },
    {
      "business_id": "goog_ChIJo1uT2kPQupQRI8V2bV-pMNg",
      "google_place_id": "ChIJo1uT2kPQupQRI8V2bV-pMNg",
      "name": "Oficina Mec√¢nica Carneiro",
      "category": "Servi√ßos",
      "description": "Servi√ßos em Uberaba. Classifica√ß√£o: 4.8‚≠ê (43 avalia√ß√µes). O que dizem: \"Ademar, Bom pr√≥ficional,honesto,bons pre√ßos, fez v√°rios servi√ßos  para mim,de √≥tima qualidade, recom...\"",
      "whatsapp": "(34) 3336-5244",
      "website": "",
      "latitude": -19.7661114,
      "longitude": -47.9447748,
      "street": "Rua Boror√≥s",
      "number": "155",
      "neighborhood": "S√£o Benedito",
      "city": "Uberaba",
      "state": "MG",
      "zip_code": "38020-420",
      "address": "R. Boror√≥s, 155 - S√£o Benedito, Uberaba - MG, 38020-420, Brazil",
      "open_time": "08:00",
      "close_time": "18:00",
      "forced_status": null,
      "is_premium": false,
      "verified": true,
      "rating": 4.8,
      "review_count": 43,
      "created_at": 1764637119308,
      "owner_id": "admin_import"
    },
    {
      "business_id": "goog_ChIJrTIwmV3QupQRLnIC-WXi8h4",
      "google_place_id": "ChIJrTIwmV3QupQRLnIC-WXi8h4",
      "name": "Auto Mec√¢nica Sene",
      "category": "Servi√ßos",
      "description": "Servi√ßos em Uberaba. Classifica√ß√£o: 4.8‚≠ê (19 avalia√ß√µes). O que dizem: \"Melhores mec√¢nicos da cidade. De confian√ßa.\"",
      "whatsapp": "(34) 3336-6063",
      "website": "",
      "latitude": -19.769897,
      "longitude": -47.9541027,
      "street": "Rua Varginha",
      "number": "685",
      "neighborhood": "S√£o Benedito",
      "city": "Uberaba",
      "state": "MG",
      "zip_code": "38020-460",
      "address": "R. Varginha, 685 - S√£o Benedito, Uberaba - MG, 38020-460, Brazil",
      "open_time": "08:00",
      "close_time": "18:00",
      "forced_status": null,
      "is_premium": false,
      "verified": true,
      "rating": 4.8,
      "review_count": 19,
      "created_at": 1764637119719,
      "owner_id": "admin_import"
    },
    {
      "business_id": "goog_ChIJNRvQmiHQupQRRECIv5-muhU",
      "google_place_id": "ChIJNRvQmiHQupQRRECIv5-muhU",
      "name": "Timbinha Auto Mec√¢nica Servi√ßos Automotivos Inje√ß√£o Eletr√¥nica",
      "category": "Servi√ßos",
      "description": "Servi√ßos em Uberaba. Classifica√ß√£o: 4.9‚≠ê (250 avalia√ß√µes). O que dizem: \"Top\"",
      "whatsapp": "(34) 3312-0998",
      "website": "https://www.instagram.com/automecanicatimbinha/?hl=pt-br",
      "latitude": -19.7609707,
      "longitude": -47.9261357,
      "street": "Rua Tenente Venceslau Oliveira",
      "number": "985",
      "neighborhood": "Nossa Senhora da Abadia",
      "city": "Uberaba",
      "state": "MG",
      "zip_code": "38026-020",
      "address": "R. Ten. Venceslau Oliveira, 985 - Nossa Sra. da Abadia, Uberaba - MG, 38026-020, Brazil",
      "open_time": "08:00",
      "close_time": "18:00",
      "forced_status": null,
      "is_premium": false,
      "verified": true,
      "rating": 4.9,
      "review_count": 250,
      "created_at": 1764637120047,
      "owner_id": "admin_import"
    },
    {
      "business_id": "goog_ChIJ70QJJL7PupQRsyLXgcrg5Ks",
      "google_place_id": "ChIJ70QJJL7PupQRsyLXgcrg5Ks",
      "name": "Tr√≠ade Centro Automotivo Especializado",
      "category": "Servi√ßos",
      "description": "Servi√ßos em Uberaba. Classifica√ß√£o: 4.9‚≠ê (312 avalia√ß√µes). O que dizem: \"√ìtimo atendimento, profissionais muito bem capacitados. Servi√ßo de Qualidade\"",
      "whatsapp": "(34) 3326-9574",
      "website": "https://triadeauto.com.br/",
      "latitude": -19.7457412,
      "longitude": -47.8973817,
      "street": "Avenida Nossa Senhora do Desterro",
      "number": "1660",
      "neighborhood": "Cidade Nova",
      "city": "Uberaba",
      "state": "MG",
      "zip_code": "38082-147",
      "address": "Av. Nossa Senhora do Desterro, 1660 - Cidade Nova, Uberaba - MG, 38082-147, Brazil",
      "open_time": "08:00",
      "close_time": "18:00",
      "forced_status": null,
      "is_premium": false,
      "verified": true,
      "rating": 4.9,
      "review_count": 312,
      "created_at": 1764637120398,
      "owner_id": "admin_import"
    },
    {
      "business_id": "goog_ChIJCR5DP8DRupQRzgXZsMZJ4x8",
      "google_place_id": "ChIJCR5DP8DRupQRzgXZsMZJ4x8",
      "name": "Oficina do Vicente",
      "category": "Servi√ßos",
      "description": "Servi√ßos em Uberaba. Classifica√ß√£o: 4.7‚≠ê (19 avalia√ß√µes). O que dizem: \"Pessoal honesto,bom atendimento, bons pre√ßos... muita qualidade...\"",
      "whatsapp": "(34) 3333-5510",
      "website": "",
      "latitude": -19.7295971,
      "longitude": -47.940275,
      "street": "Avenida Jo√£o Machado Borges",
      "number": "47",
      "neighborhood": "Jardim Espirito Santo",
      "city": "Uberaba",
      "state": "MG",
      "zip_code": "38067-380",
      "address": "Av. Jo√£o Machado Borges, 47 - Jardim Espirito Santo, Uberaba - MG, 38067-380, Brazil",
      "open_time": "08:00",
      "close_time": "18:00",
      "forced_status": null,
      "is_premium": false,
      "verified": true,
      "rating": 4.7,
      "review_count": 19,
      "created_at": 1764637120725,
      "owner_id": "admin_import"
    },
    {
      "business_id": "goog_ChIJz-s3BBTQupQRtSfee6sbhZI",
      "google_place_id": "ChIJz-s3BBTQupQRtSfee6sbhZI",
      "name": "Oficina 1R",
      "category": "Servi√ßos",
      "description": "Servi√ßos em Uberaba. Classifica√ß√£o: 4.2‚≠ê (18 avalia√ß√µes). O que dizem: \"Renato meu amigo como n√£o iria dar uma nota 10 pra vc meu irm√£o.\"",
      "whatsapp": "(34) 3311-6503",
      "website": "",
      "latitude": -19.7703711,
      "longitude": -47.9370923,
      "street": "Rua Jos√© Bonif√°cio",
      "number": "418",
      "neighborhood": "Cidade Jardim",
      "city": "Uberaba",
      "state": "MG",
      "zip_code": "38030-140",
      "address": "R. Jos√© Bonif√°cio, 418 - Cidade Jardim, Uberaba - MG, 38030-140, Brazil",
      "open_time": "08:00",
      "close_time": "18:00",
      "forced_status": null,
      "is_premium": false,
      "verified": true,
      "rating": 4.2,
      "review_count": 18,
      "created_at": 1764637121060,
      "owner_id": "admin_import"
    },
    {
      "business_id": "goog_ChIJ4_XbNsfRupQRAsCiPnOhr8c",
      "google_place_id": "ChIJ4_XbNsfRupQRAsCiPnOhr8c",
      "name": "Oficina Equip Multimarcas",
      "category": "Servi√ßos",
      "description": "Servi√ßos em Uberaba. Classifica√ß√£o: 4.7‚≠ê (82 avalia√ß√µes). O que dizem: \"Top\"",
      "whatsapp": "(34) 3315-4330",
      "website": "",
      "latitude": -19.7408677,
      "longitude": -47.9587852,
      "street": "Avenida Alexandre Barbosa",
      "number": "1700",
      "neighborhood": "Merc√™s",
      "city": "Uberaba",
      "state": "MG",
      "zip_code": "38060-200",
      "address": "Av. Alexandre Barbosa, 1700 - Merc√™s, Uberaba - MG, 38060-200, Brazil",
      "open_time": "08:00",
      "close_time": "18:00",
      "forced_status": null,
      "is_premium": false,
      "verified": true,
      "rating": 4.7,
      "review_count": 82,
      "created_at": 1764637121417,
      "owner_id": "admin_import"
    },
    {
      "business_id": "goog_ChIJ4Ze27RfQupQR868pZMlRVds",
      "google_place_id": "ChIJ4Ze27RfQupQR868pZMlRVds",
      "name": "Oficina BL",
      "category": "Servi√ßos",
      "description": "Servi√ßos em Uberaba. Classifica√ß√£o: 4.8‚≠ê (17 avalia√ß√µes). O que dizem: \"Top\"",
      "whatsapp": "(34) 3336-8024",
      "website": "https://sites.google.com/view/oficinalb",
      "latitude": -19.7693442,
      "longitude": -47.9360742,
      "street": "Rua Jos√© Bonif√°cio",
      "number": "573",
      "neighborhood": "Cidade Jardim",
      "city": "Uberaba",
      "state": "MG",
      "zip_code": "38030-140",
      "address": "R. Jos√© Bonif√°cio, 573 - Cidade Jardim, Uberaba - MG, 38030-140, Brazil",
      "open_time": "08:00",
      "close_time": "18:00",
      "forced_status": null,
      "is_premium": false,
      "verified": true,
      "rating": 4.8,
      "review_count": 17,
      "created_at": 1764637121756,
      "owner_id": "admin_import"
    },
    {
      "business_id": "goog_ChIJW7IP_RbQupQRCa32HcrmXts",
      "google_place_id": "ChIJW7IP_RbQupQRCa32HcrmXts",
      "name": "Centro Automotivo Interlagos",
      "category": "Servi√ßos",
      "description": "Servi√ßos em Uberaba. Classifica√ß√£o: 4.6‚≠ê (83 avalia√ß√µes). O que dizem: \"Ok\"",
      "whatsapp": "(34) 3338-0278",
      "website": "https://www.instagram.com/centroautomotivointerlagos/",
      "latitude": -19.7673582,
      "longitude": -47.9331494,
      "street": "Rua Jos√© Bonif√°cio",
      "number": "950",
      "neighborhood": "Leblon",
      "city": "Uberaba",
      "state": "MG",
      "zip_code": "38030-140",
      "address": "R. Jos√© Bonif√°cio, 950 - Leblon, Uberaba - MG, 38030-140, Brazil",
      "open_time": "08:00",
      "close_time": "18:00",
      "forced_status": null,
      "is_premium": false,
      "verified": true,
      "rating": 4.6,
      "review_count": 83,
      "created_at": 1764637122077,
      "owner_id": "admin_import"
    },
    {
      "business_id": "goog_ChIJy20Phl3QupQRWT3jmkZKhNQ",
      "google_place_id": "ChIJy20Phl3QupQRWT3jmkZKhNQ",
      "name": "Bosch Car Service - Nacional Uberaba Pe√ßas e Servi√ßos",
      "category": "Servi√ßos",
      "description": "Servi√ßos em Uberaba. Classifica√ß√£o: 4.2‚≠ê (444 avalia√ß√µes). O que dizem: \"Topüëèüëèüëè\"",
      "whatsapp": "(34) 3336-4622",
      "website": "https://www.oficinaboschservice.com.br/nacionalpecasuberaba",
      "latitude": -19.7707519,
      "longitude": -47.954637,
      "street": "Avenida Edilson Lamartine Mendes",
      "number": "999",
      "neighborhood": "Parque das Americas",
      "city": "Uberaba",
      "state": "MG",
      "zip_code": "38045-000",
      "address": "Av. Edilson Lamartine Mendes, 999 - Parque das Americas, Uberaba - MG, 38045-000, Brazil",
      "open_time": "08:00",
      "close_time": "18:00",
      "forced_status": null,
      "is_premium": false,
      "verified": true,
      "rating": 4.2,
      "review_count": 444,
      "created_at": 1764637122440,
      "owner_id": "admin_import"
    },
    {
      "business_id": "goog_ChIJf4pgDr_PupQRA-VSn5dh23w",
      "google_place_id": "ChIJf4pgDr_PupQRA-VSn5dh23w",
      "name": "V8 Lubrificantes",
      "category": "Servi√ßos",
      "description": "Servi√ßos em Uberaba. Classifica√ß√£o: 4.8‚≠ê (251 avalia√ß√µes). O que dizem: \"Top\"",
      "whatsapp": "(34) 3073-8588",
      "website": "https://v8lubrificantes.com/",
      "latitude": -19.7526054,
      "longitude": -47.900377,
      "street": "Avenida Nossa Senhora do Desterro",
      "number": "734",
      "neighborhood": "Oneida Mendes",
      "city": "Uberaba",
      "state": "MG",
      "zip_code": "38082-200",
      "address": "Av. Nossa Senhora do Desterro, 734 - Oneida Mendes, Uberaba - MG, 38082-200, Brazil",
      "open_time": "08:00",
      "close_time": "18:00",
      "forced_status": null,
      "is_premium": false,
      "verified": true,
      "rating": 4.8,
      "review_count": 251,
      "created_at": 1764637122792,
      "owner_id": "admin_import"
    },
    {
      "business_id": "goog_ChIJeVSYNV3QupQR8xRU_nnVXqE",
      "google_place_id": "ChIJeVSYNV3QupQR8xRU_nnVXqE",
      "name": "Oficina Humberto",
      "category": "Servi√ßos",
      "description": "Servi√ßos em Uberaba. Classifica√ß√£o: 4.8‚≠ê (73 avalia√ß√µes). O que dizem: \"Top\"",
      "whatsapp": "3336-4237",
      "website": "",
      "latitude": -19.7688761,
      "longitude": -47.9517027,
      "street": "Rua Eust√≥rgio Pinheiro",
      "number": "44",
      "neighborhood": "S√£o Benedito",
      "city": "Uberaba",
      "state": "MG",
      "zip_code": "38020-490",
      "address": "R. Eust√≥rgio Pinheiro, 44 - S√£o Benedito, Uberaba - MG, 38020-490, Brazil",
      "open_time": "08:00",
      "close_time": "18:00",
      "forced_status": null,
      "is_premium": false,
      "verified": true,
      "rating": 4.8,
      "review_count": 73,
      "created_at": 1764637123100,
      "owner_id": "admin_import"
    },
    {
      "business_id": "goog_ChIJs-1qKdnPupQRzosYeu5-43w",
      "google_place_id": "ChIJs-1qKdnPupQRzosYeu5-43w",
      "name": "Valtinho Auto Service Multimarcas",
      "category": "Servi√ßos",
      "description": "Servi√ßos em Uberaba. Classifica√ß√£o: 4.8‚≠ê (45 avalia√ß√µes). O que dizem: \"√ìtima oficina e l√° tem uns dos melhores mec√¢nico em Uberaba eu recomendo Valtinho e sua equipe est√£o...\"",
      "whatsapp": "(34) 3075-2467",
      "website": "",
      "latitude": -19.7556112,
      "longitude": -47.9191208,
      "street": "Rua Jos√© Damas de Oliveira",
      "number": "99",
      "neighborhood": "Nossa Senhora da Abadia",
      "city": "Uberaba",
      "state": "MG",
      "zip_code": "38026-295",
      "address": "R. Jos√© Damas de Oliveira, 99 - Nossa Sra. da Abadia, Uberaba - MG, 38026-295, Brazil",
      "open_time": "08:00",
      "close_time": "18:00",
      "forced_status": null,
      "is_premium": false,
      "verified": true,
      "rating": 4.8,
      "review_count": 45,
      "created_at": 1764637123408,
      "owner_id": "admin_import"
    },
    {
      "business_id": "goog_ChIJa5RTlePRupQRvgSovqeTYZc",
      "google_place_id": "ChIJa5RTlePRupQRvgSovqeTYZc",
      "name": "Oficina Do Ademar",
      "category": "Servi√ßos",
      "description": "Servi√ßos em Uberaba. Classifica√ß√£o: 4.9‚≠ê (8 avalia√ß√µes). O que dizem: \"Bom profissional ,muito honesto, seu carro estar√° em boas m√£os, atendimento de primeira qualidade, p...\"",
      "whatsapp": "(34) 3336-5244",
      "website": "",
      "latitude": -19.7661115,
      "longitude": -47.9447751,
      "street": "Rua Boror√≥s",
      "number": "155",
      "neighborhood": "S√£o Benedito",
      "city": "Uberaba",
      "state": "MG",
      "zip_code": "38020-425",
      "address": "R. Boror√≥s, 155 - S√£o Benedito, Uberaba - MG, 38020-425, Brazil",
      "open_time": "08:00",
      "close_time": "18:00",
      "forced_status": null,
      "is_premium": false,
      "verified": true,
      "rating": 4.9,
      "review_count": 8,
      "created_at": 1764637123752,
      "owner_id": "admin_import"
    },
    {
      "business_id": "goog_ChIJ4zgP-d7RupQRgg4ubw6ywQA",
      "google_place_id": "ChIJ4zgP-d7RupQRgg4ubw6ywQA",
      "name": "Oficina5 Solu√ß√µes Inteligentes e Consultoria",
      "category": "Servi√ßos",
      "description": "Servi√ßos em Uberaba. Classifica√ß√£o: 4.7‚≠ê (29 avalia√ß√µes). O que dizem: \"Profissionais competentes que entregam o projeto no prazo e com qualidade superior! S√£o Excelentes !\"",
      "whatsapp": "(34) 3314-3640",
      "website": "http://www.oficina5.com.br/",
      "latitude": -19.7498395,
      "longitude": -47.9607135,
      "street": "Rua Coronel Ant√¥nio Rios",
      "number": "1097",
      "neighborhood": "Santa Marta",
      "city": "Uberaba",
      "state": "MG",
      "zip_code": "38061-150",
      "address": "R. Cel. Ant√¥nio Rios, 1097 - Sala 703 - Santa Marta, Uberaba - MG, 38061-150, Brazil",
      "open_time": "08:00",
      "close_time": "18:00",
      "forced_status": null,
      "is_premium": false,
      "verified": true,
      "rating": 4.7,
      "review_count": 29,
      "created_at": 1764637124063,
      "owner_id": "admin_import"
    },
    {
      "business_id": "goog_ChIJT3J-jbrPupQRchbnvIysLN8",
      "google_place_id": "ChIJT3J-jbrPupQRchbnvIysLN8",
      "name": "oficina mec√¢nica di sousa",
      "category": "Servi√ßos",
      "description": "Servi√ßos em Uberaba. Classifica√ß√£o: 4.5‚≠ê (11 avalia√ß√µes). O que dizem: \"M√£o de obra especializada, entrega r√°pida  sem enrola√ß√£o pre√ßos justos sem falar nos profissionais e...\"",
      "whatsapp": "(34) 98866-8200",
      "website": "",
      "latitude": -19.7422782,
      "longitude": -47.9018462,
      "street": "Avenida Jo√£o Theodoro Almeida",
      "number": "262",
      "neighborhood": "S√£o Jos√©",
      "city": "Uberaba",
      "state": "MG",
      "zip_code": "38082-078",
      "address": "PQ - Av. Jo√£o Theodoro Almeida, 262 - S√£o Jos√©, Uberaba - MG, 38082-078, Brazil",
      "open_time": "08:00",
      "close_time": "18:00",
      "forced_status": null,
      "is_premium": false,
      "verified": true,
      "rating": 4.5,
      "review_count": 11,
      "created_at": 1764637124634,
      "owner_id": "admin_import"
    },
    {
      "business_id": "goog_ChIJW68MWGDPupQR_SJAAV76m3o",
      "google_place_id": "ChIJW68MWGDPupQR_SJAAV76m3o",
      "name": "Tricar Centro Automotivo",
      "category": "Servi√ßos",
      "description": "Servi√ßos em Uberaba.",
      "whatsapp": "(34) 3312-6009",
      "website": "",
      "latitude": -19.7549738,
      "longitude": -47.90159250000001,
      "street": "Avenida Nossa Senhora do Desterro",
      "number": "434",
      "neighborhood": "Conjunto Manoel Mendes",
      "city": "Uberaba",
      "state": "MG",
      "zip_code": "38082-170",
      "address": "Av. Nossa Senhora do Desterro, 434 - Conj. Manoel Mendes, Uberaba - MG, 38082-170, Brazil",
      "open_time": "08:00",
      "close_time": "18:00",
      "forced_status": null,
      "is_premium": false,
      "verified": true,
      "rating": 0,
      "review_count": 0,
      "created_at": 1764637124969,
      "owner_id": "admin_import"
    },
    {
      "business_id": "goog_ChIJx6BYq-jPupQRo7PDokgBESM",
      "google_place_id": "ChIJx6BYq-jPupQRo7PDokgBESM",
      "name": "TSi Mec√¢nica Multimarcas",
      "category": "Servi√ßos",
      "description": "Servi√ßos em Uberaba. Classifica√ß√£o: 5‚≠ê (8 avalia√ß√µes). O que dizem: \"Oficina top! Recomendo\"",
      "whatsapp": "(34) 98882-0440",
      "website": "",
      "latitude": -19.7608976,
      "longitude": -47.9007256,
      "street": "Avenida Padre Eddie Bernardes da Silva",
      "number": "865",
      "neighborhood": "Lourdes",
      "city": "Uberaba",
      "state": "MG",
      "zip_code": "38035-230",
      "address": "Av. Padre Eddie Bernardes da Silva, 865 - Lourdes, Uberaba - MG, 38035-230, Brazil",
      "open_time": "08:00",
      "close_time": "18:00",
      "forced_status": null,
      "is_premium": false,
      "verified": true,
      "rating": 5,
      "review_count": 8,
      "created_at": 1764637125651,
      "owner_id": "admin_import"
    },
    {
      "business_id": "goog_ChIJZU8pJJPPupQRLFOd0Vn94-E",
      "google_place_id": "ChIJZU8pJJPPupQRLFOd0Vn94-E",
      "name": "Studycar Brasil Auto Center",
      "category": "Servi√ßos",
      "description": "Servi√ßos em Uberaba. Classifica√ß√£o: 5‚≠ê (12 avalia√ß√µes). O que dizem: \"Atendimento e servi√ßo excelente. Sempre sou bem atendido e o servi√ßo sempre foi de extrema qualidade...\"",
      "whatsapp": "(34) 99895-1679",
      "website": "",
      "latitude": -19.73796,
      "longitude": -47.8964256,
      "street": "Avenida Djalma Castro Alves",
      "number": "802",
      "neighborhood": "Amoroso Costa",
      "city": "Uberaba",
      "state": "MG",
      "zip_code": "38073-000",
      "address": "Av. Djalma Castro Alves, 802 - Amoroso Costa, Uberaba - MG, 38073-000, Brazil",
      "open_time": "08:00",
      "close_time": "18:00",
      "forced_status": null,
      "is_premium": false,
      "verified": true,
      "rating": 5,
      "review_count": 12,
      "created_at": 1764637125970,
      "owner_id": "admin_import"
    },
    {
      "business_id": "goog_ChIJ5RwtrS3QupQRANC4-9BquH8",
      "google_place_id": "ChIJ5RwtrS3QupQRANC4-9BquH8",
      "name": "Oficina Mec√¢nica Multimarcas-Ubermec",
      "category": "Servi√ßos",
      "description": "Servi√ßos em Uberaba. Classifica√ß√£o: 4.7‚≠ê (27 avalia√ß√µes). O que dizem: \"oficina que levo os meus carros h√°  30 anos, sempre √≥timo servi√ßo  e honestidade!\nRecomendo sempre!\"",
      "whatsapp": "(34) 3321-6678",
      "website": "",
      "latitude": -19.7472094,
      "longitude": -47.9292895,
      "street": "Rua P√≠res de Campos",
      "number": "235",
      "neighborhood": "Estados Unidos",
      "city": "Uberaba",
      "state": "MG",
      "zip_code": "38015-120",
      "address": "R. P√≠res de Campos, 235 - Estados Unidos, Uberaba - MG, 38015-120, Brazil",
      "open_time": "08:00",
      "close_time": "18:00",
      "forced_status": null,
      "is_premium": false,
      "verified": true,
      "rating": 4.7,
      "review_count": 27,
      "created_at": 1764637126311,
      "owner_id": "admin_import"
    },
    {
      "business_id": "goog_ChIJY5ImRgnPupQRWyDNpjubAV0",
      "google_place_id": "ChIJY5ImRgnPupQRWyDNpjubAV0",
      "name": "Carros Auto center - Pe√ßas e servi√ßos",
      "category": "Servi√ßos",
      "description": "Servi√ßos em Uberaba. Classifica√ß√£o: 4.9‚≠ê (9 avalia√ß√µes). O que dizem: \"Estava em viagem fui atendido na hora e nada de explora√ß√£o, servi√ßo com extraordin√°rio compet√™ncia.\"",
      "whatsapp": "(34) 3334-2326",
      "website": "",
      "latitude": -19.7497385,
      "longitude": -47.897984,
      "street": "Avenida Alo√≠zio de Oliveira",
      "number": "138",
      "neighborhood": "Oneida Mendes",
      "city": "Uberaba",
      "state": "MG",
      "zip_code": "38082-188",
      "address": "Av. Alo√≠zio de Oliveira, 138 - Oneida Mendes, Uberaba - MG, 38082-188, Brazil",
      "open_time": "08:00",
      "close_time": "18:00",
      "forced_status": null,
      "is_premium": false,
      "verified": true,
      "rating": 4.9,
      "review_count": 9,
      "created_at": 1764637126692,
      "owner_id": "admin_import"
    },
    {
      "business_id": "goog_ChIJbQlexGPRupQR7iWSdIetwsE",
      "google_place_id": "ChIJbQlexGPRupQR7iWSdIetwsE",
      "name": "JR Multimarcas-Auto Center,Oficina Mec√¢nica e Pe√ßas,Oficina Amiga da Mulher em Uberaba",
      "category": "Servi√ßos",
      "description": "Servi√ßos em Uberaba. Classifica√ß√£o: 4.9‚≠ê (211 avalia√ß√µes). O que dizem: \"Top\"",
      "whatsapp": "(34) 3334-1047",
      "website": "https://l.instagram.com/?u=https%3A%2F%2Fjrmultimarcas.smallpage.com.br%2F&e=AT2WIBKoNiXK4QFSFfybyfvStvUX8Nn6VgG4TBimfkV3qxlnRS4G01flyjpNvUgIxAYmoHpd3gKI0X4m3XCv5vG76i5T_MOMgi8ksg",
      "latitude": -19.7709674,
      "longitude": -47.95087160000001,
      "street": "Rua da Independ√™ncia",
      "number": "45",
      "neighborhood": "Parque das Americas",
      "city": "Uberaba",
      "state": "MG",
      "zip_code": "38045-120",
      "address": "R. da Independ√™ncia, 45 - Parque das Americas, Uberaba - MG, 38045-120, Brazil",
      "open_time": "08:00",
      "close_time": "18:00",
      "forced_status": null,
      "is_premium": false,
      "verified": true,
      "rating": 4.9,
      "review_count": 211,
      "created_at": 1764637127066,
      "owner_id": "admin_import"
    },
    {
      "business_id": "goog_ChIJeyT-ZdHRupQRoxTkWB7wlUA",
      "google_place_id": "ChIJeyT-ZdHRupQRoxTkWB7wlUA",
      "name": "Oficina do Pastel",
      "category": "Servi√ßos",
      "description": "Servi√ßos em Uberaba. Classifica√ß√£o: 4.6‚≠ê (425 avalia√ß√µes). O que dizem: \"Comemos no local. Uma experi√™ncia saborosa e inesquec√≠vel. Sempre que poss√≠vel nossa equipe do caldo...\"",
      "whatsapp": "(34) 3322-4044",
      "website": "",
      "latitude": -19.7389727,
      "longitude": -47.9281777,
      "street": "Rua Gabriel Junqueira",
      "number": "235",
      "neighborhood": "Boa Vista",
      "city": "Uberaba",
      "state": "MG",
      "zip_code": "38017-050",
      "address": "R. Gabriel Junqueira, 235 - Boa Vista, Uberaba - MG, 38017-050, Brazil",
      "open_time": "08:00",
      "close_time": "18:00",
      "forced_status": null,
      "is_premium": false,
      "verified": true,
      "rating": 4.6,
      "review_count": 425,
      "created_at": 1764637127452,
      "owner_id": "admin_import"
    },
    {
      "business_id": "goog_ChIJO7xknAXRupQRB34HsAYBjTw",
      "google_place_id": "ChIJO7xknAXRupQRB34HsAYBjTw",
      "name": "Oficina Uberaba 2 irm√£o moto pe√ßas e prepara√ß√µes",
      "category": "Servi√ßos",
      "description": "Servi√ßos em Uberaba. Classifica√ß√£o: 5‚≠ê (14 avalia√ß√µes). O que dizem: \"Melhor oficina, sem palavras pelo trampo dele e pela educa√ß√£o, resolve seu problema na hora, trampo ...\"",
      "whatsapp": "(34) 98440-6870",
      "website": "",
      "latitude": -19.7463837,
      "longitude": -47.9321644,
      "street": "Rua Bernardo Guimar√£es",
      "number": "93",
      "neighborhood": "Estados Unidos",
      "city": "Uberaba",
      "state": "MG",
      "zip_code": "38015-090",
      "address": "R. Bernardo Guimar√£es, 93 - Estados Unidos, Uberaba - MG, 38015-090, Brazil",
      "open_time": "08:00",
      "close_time": "18:00",
      "forced_status": null,
      "is_premium": false,
      "verified": true,
      "rating": 5,
      "review_count": 14,
      "created_at": 1764637127853,
      "owner_id": "admin_import"
    },
    {
      "business_id": "goog_ChIJ_2uJw1bRupQRLEyhCSQHfPk",
      "google_place_id": "ChIJ_2uJw1bRupQRLEyhCSQHfPk",
      "name": "Centro Automotivo Uberaba Ltda",
      "category": "Servi√ßos",
      "description": "Servi√ßos em Uberaba. Classifica√ß√£o: 4.9‚≠ê (37 avalia√ß√µes). O que dizem: \"Trabalhei h√° alguns anos nesse lugar maravilhoso... Pedro, Eli, Jo√£o pessoas √≠mpar.\"",
      "whatsapp": "(34) 3312-0162",
      "website": "https://www.facebook.com/centroautomotivouberaba",
      "latitude": -19.7538289,
      "longitude": -47.9335549,
      "street": "Rua Quincas Vaz",
      "number": "27",
      "neighborhood": "Centro",
      "city": "Uberaba",
      "state": "MG",
      "zip_code": "38010-200",
      "address": "Avenida Guilherme Ferreira, 417 - R. Quincas Vaz, 27 - Centro, Uberaba - MG, 38010-200, Brazil",
      "open_time": "08:00",
      "close_time": "18:00",
      "forced_status": null,
      "is_premium": false,
      "verified": true,
      "rating": 4.9,
      "review_count": 37,
      "created_at": 1764637128237,
      "owner_id": "admin_import"
    },
    {
      "business_id": "goog_ChIJE-dBwt_PupQRugtQtSohzXM",
      "google_place_id": "ChIJE-dBwt_PupQRugtQtSohzXM",
      "name": "Merreca Motos e Pe√ßas",
      "category": "Servi√ßos",
      "description": "Servi√ßos em Uberaba. Classifica√ß√£o: 5‚≠ê (7 avalia√ß√µes). O que dizem: \"Bom profissional muito atencioso recomendo a todos fazer a experi√™ncia e depois comentarem com eu es...\"",
      "whatsapp": "(34) 98832-0644",
      "website": "",
      "latitude": -19.7640009,
      "longitude": -47.8895345,
      "street": "Rua Rub√©ns F√©lix",
      "number": "472",
      "neighborhood": "Conjunto Antonio Barbosa de Souza",
      "city": "Uberaba",
      "state": "MG",
      "zip_code": "38035-807",
      "address": "R. Rub√©ns F√©lix, 472 - Conj. Antonio Barbosa de Souza, Uberaba - MG, 38035-807, Brazil",
      "open_time": "08:00",
      "close_time": "18:00",
      "forced_status": null,
      "is_premium": false,
      "verified": true,
      "rating": 5,
      "review_count": 7,
      "created_at": 1764637128906,
      "owner_id": "admin_import"
    },
    {
      "business_id": "goog_ChIJHTI4rNrPupQRf2tCfsLqEAw",
      "google_place_id": "ChIJHTI4rNrPupQRf2tCfsLqEAw",
      "name": "CARTECH UBERABA",
      "category": "Servi√ßos",
      "description": "Servi√ßos em Uberaba. Classifica√ß√£o: 4.6‚≠ê (10 avalia√ß√µes). O que dizem: \"Servi√ßo de qualidade e pre√ßo justo!\nSou cliente desde a funda√ß√£o da empresa.\"",
      "whatsapp": "(34) 99217-0212",
      "website": "https://instagram.com/cartechuberaba?igshid=YmMyMTA2M2Y=",
      "latitude": -19.7472719,
      "longitude": -47.8981383,
      "street": "Avenida Nossa Senhora do Desterro",
      "number": "1458",
      "neighborhood": "Cidade Nova",
      "city": "Uberaba",
      "state": "MG",
      "zip_code": "38082-350",
      "address": "Av. Nossa Senhora do Desterro, 1458 - Cidade Nova, Uberaba - MG, 38082-350, Brazil",
      "open_time": "08:00",
      "close_time": "18:00",
      "forced_status": null,
      "is_premium": false,
      "verified": true,
      "rating": 4.6,
      "review_count": 10,
      "created_at": 1764637129305,
      "owner_id": "admin_import"
    },
    {
      "business_id": "goog_ChIJ0Wrnr5HPupQRPh70pLlrfCA",
      "google_place_id": "ChIJ0Wrnr5HPupQRPh70pLlrfCA",
      "name": "Promotos",
      "category": "Servi√ßos",
      "description": "Servi√ßos em Uberaba. Classifica√ß√£o: 4.7‚≠ê (126 avalia√ß√µes). O que dizem: \"Top\"",
      "whatsapp": "(34) 3315-1582",
      "website": "",
      "latitude": -19.7587592,
      "longitude": -47.8946777,
      "street": "Rua das Papoulas",
      "number": "77",
      "neighborhood": "Lourdes",
      "city": "Uberaba",
      "state": "MG",
      "zip_code": "38035-620",
      "address": "Rua das Papoulas, 77 - Lourdes, Uberaba - MG, 38035-620, Brazil",
      "open_time": "08:00",
      "close_time": "18:00",
      "forced_status": null,
      "is_premium": false,
      "verified": true,
      "rating": 4.7,
      "review_count": 126,
      "created_at": 1764637129653,
      "owner_id": "admin_import"
    },
    {
      "business_id": "goog_ChIJaVF-2szPupQR08l4DZlaqAI",
      "google_place_id": "ChIJaVF-2szPupQR08l4DZlaqAI",
      "name": "ELEGANCIA CAR",
      "category": "Servi√ßos",
      "description": "Servi√ßos em Uberaba. Classifica√ß√£o: 5‚≠ê (32 avalia√ß√µes). O que dizem: \"Excelente experi√™ncia. Carro entregue no hor√°rio agendado, muito bem limpo inclusive nos detalhes. O...\"",
      "whatsapp": "(34) 98415-6470",
      "website": "",
      "latitude": -19.7601106,
      "longitude": -47.8922432,
      "street": "Rua das Oliveiras",
      "number": "102",
      "neighborhood": "Lourdes",
      "city": "Uberaba",
      "state": "MG",
      "zip_code": "38035-030",
      "address": "Rua das Oliveiras, 102 - Lourdes, Uberaba - MG, 38035-030, Brazil",
      "open_time": "08:00",
      "close_time": "18:00",
      "forced_status": null,
      "is_premium": false,
      "verified": true,
      "rating": 5,
      "review_count": 32,
      "created_at": 1764637129999,
      "owner_id": "admin_import"
    },
    {
      "business_id": "goog_ChIJ6QqXNyHQupQRCOqeunEyF34",
      "google_place_id": "ChIJ6QqXNyHQupQRCOqeunEyF34",
      "name": "Rav Car Service",
      "category": "Servi√ßos",
      "description": "Servi√ßos em Uberaba. Classifica√ß√£o: 5‚≠ê (8 avalia√ß√µes). O que dizem: \"Atendimento e servi√ßo excelente. Profissional confi√°vel, t√©cnico e dedicado √† profiss√£o; preocupado ...\"",
      "whatsapp": "(34) 98430-4126",
      "website": "",
      "latitude": -19.7538872,
      "longitude": -47.8968631,
      "street": "Rua Eg√≠dio Fantato",
      "number": "509",
      "neighborhood": "Conjunto Manoel Mendes",
      "city": "Uberaba",
      "state": "MG",
      "zip_code": "38082-152",
      "address": "R. Eg√≠dio Fantato, 509 - Conj. Manoel Mendes, Uberaba - MG, 38082-152, Brazil",
      "open_time": "08:00",
      "close_time": "18:00",
      "forced_status": null,
      "is_premium": false,
      "verified": true,
      "rating": 5,
      "review_count": 8,
      "created_at": 1764637130412,
      "owner_id": "admin_import"
    },
    {
      "business_id": "goog_ChIJuZK_sbDPupQRNUUsKKxxgUg",
      "google_place_id": "ChIJuZK_sbDPupQRNUUsKKxxgUg",
      "name": "Adrenaline Motorcycle Parts",
      "category": "Servi√ßos",
      "description": "Servi√ßos em Uberaba. Classifica√ß√£o: 4.5‚≠ê (40 avalia√ß√µes). O que dizem: \"Excelente atendimento, totalmente profissional\"",
      "whatsapp": "(34) 3317-1162",
      "website": "",
      "latitude": -19.7538646,
      "longitude": -47.9009609,
      "street": "Avenida Nossa Senhora do Desterro",
      "number": "574",
      "neighborhood": "Conjunto Manoel Mendes",
      "city": "Uberaba",
      "state": "MG",
      "zip_code": "38082-170",
      "address": "Av. Nossa Senhora do Desterro, 574 - Conj. Manoel Mendes, Uberaba - MG, 38082-170, Brazil",
      "open_time": "08:00",
      "close_time": "18:00",
      "forced_status": null,
      "is_premium": false,
      "verified": true,
      "rating": 4.5,
      "review_count": 40,
      "created_at": 1764637130799,
      "owner_id": "admin_import"
    },
    {
      "business_id": "goog_ChIJlxD8htnRupQRhM9A7mLCnb8",
      "google_place_id": "ChIJlxD8htnRupQRhM9A7mLCnb8",
      "name": "Simon Car Oficina Mec√¢nica Multimarcas Alinhamento e Balanceamento",
      "category": "Servi√ßos",
      "description": "Servi√ßos em Uberaba. Classifica√ß√£o: 4.6‚≠ê (20 avalia√ß√µes). O que dizem: \"Pior oficina que j√° vi na vida. Pessoal marca com o cliente diversas vezes e n√£o vai e tbm n√£o respo...\"",
      "whatsapp": "(34) 98869-9028",
      "website": "",
      "latitude": -19.7362851,
      "longitude": -47.9131448,
      "street": "Rua Doutor Jos√© Maria dos R√©is",
      "number": "983",
      "neighborhood": "Estados Unidos",
      "city": "Uberaba",
      "state": "MG",
      "zip_code": "38072-106",
      "address": "R. Dr. Jos√© Maria dos R√©is, 983 - Estados Unidos, Uberaba - MG, 38072-106, Brazil",
      "open_time": "08:00",
      "close_time": "18:00",
      "forced_status": null,
      "is_premium": false,
      "verified": true,
      "rating": 4.6,
      "review_count": 20,
      "created_at": 1764637131172,
      "owner_id": "admin_import"
    },
    {
      "business_id": "goog_ChIJcRJQJkDQupQR-T4pm7RZ5Kg",
      "google_place_id": "ChIJcRJQJkDQupQR-T4pm7RZ5Kg",
      "name": "Autocar Multimarca",
      "category": "Servi√ßos",
      "description": "Servi√ßos em Uberaba. Classifica√ß√£o: 4.7‚≠ê (42 avalia√ß√µes). O que dizem: \"Super recomendo honesto e muito profissional fa√ßo servi√ßo a mais de 25 anos com eles e nunca tive pr...\"",
      "whatsapp": "(34) 3311-5515",
      "website": "",
      "latitude": -19.7675528,
      "longitude": -47.9433471,
      "street": "Avenida Apol√¥nio S√°les",
      "number": "46",
      "neighborhood": "S√£o Benedito",
      "city": "Uberaba",
      "state": "MG",
      "zip_code": "38020-430",
      "address": "Av. Apol√¥nio S√°les, 46 - S√£o Benedito, Uberaba - MG, 38020-430, Brazil",
      "open_time": "08:00",
      "close_time": "18:00",
      "forced_status": null,
      "is_premium": false,
      "verified": true,
      "rating": 4.7,
      "review_count": 42,
      "created_at": 1764637131498,
      "owner_id": "admin_import"
    },
    {
      "business_id": "goog_ChIJhc3uOJ_aupQRDR2wp0f2SuA",
      "google_place_id": "ChIJhc3uOJ_aupQRDR2wp0f2SuA",
      "name": "MECANICA RUSSO",
      "category": "Servi√ßos",
      "description": "Servi√ßos em Uberaba. Classifica√ß√£o: 4.6‚≠ê (57 avalia√ß√µes). O que dizem: \"Oficina especializada em caminh√µes da montadora Scania, tem servi√ßo de auto pe√ßas e mec√¢nico. Um ofi...\"",
      "whatsapp": "(34) 3336-6107",
      "website": "",
      "latitude": -19.7898022,
      "longitude": -47.9426716,
      "street": "Avenida Filomena Cartafina",
      "number": "1195",
      "neighborhood": "Recreio dos Bandeirantes",
      "city": "Uberaba",
      "state": "MG",
      "zip_code": "38040-450",
      "address": "Av. Filomena Cartafina, 1195 - Recreio dos Bandeirantes, Uberaba - MG, 38040-450, Brazil",
      "open_time": "08:00",
      "close_time": "18:00",
      "forced_status": null,
      "is_premium": false,
      "verified": true,
      "rating": 4.6,
      "review_count": 57,
      "created_at": 1764637131814,
      "owner_id": "admin_import"
    },
    {
      "business_id": "goog_ChIJhRxmLSfOupQR_cpX0UQmi_k",
      "google_place_id": "ChIJhRxmLSfOupQR_cpX0UQmi_k",
      "name": "Auto Mec√¢nica Nonato Autotech",
      "category": "Servi√ßos",
      "description": "Servi√ßos em Uberaba. Classifica√ß√£o: 4.9‚≠ê (20 avalia√ß√µes). O que dizem: \"Top\"",
      "whatsapp": "(34) 98869-1960",
      "website": "",
      "latitude": -19.7274884,
      "longitude": -47.9199339,
      "street": "Rua Jo√£o Pinheiro",
      "number": "2850",
      "neighborhood": "Conjunto Morada do Sol",
      "city": "Uberaba",
      "state": "MG",
      "zip_code": "38070-000",
      "address": "R. Jo√£o Pinheiro, 2850 - Conj. Morada do Sol, Uberaba - MG, 38070-000, Brazil",
      "open_time": "08:00",
      "close_time": "18:00",
      "forced_status": null,
      "is_premium": false,
      "verified": true,
      "rating": 4.9,
      "review_count": 20,
      "created_at": 1764637132454,
      "owner_id": "admin_import"
    },
    {
      "business_id": "goog_ChIJgWbFFp7RupQRfnLtrLi_qUU",
      "google_place_id": "ChIJgWbFFp7RupQRfnLtrLi_qUU",
      "name": "Oficina Mec√¢nica do Jap√£o",
      "category": "Servi√ßos",
      "description": "Servi√ßos em Uberaba. Classifica√ß√£o: 5‚≠ê (8 avalia√ß√µes). O que dizem: \"Profissionais extremamente confi√°veis.\nTrabalho em excel√™ncia.\nAqui se pode confiar\"",
      "whatsapp": "(34) 3332-1477",
      "website": "",
      "latitude": -19.7479442,
      "longitude": -47.9256494,
      "street": "Rua Visconde do Uruguai",
      "number": "227",
      "neighborhood": "Estados Unidos",
      "city": "Uberaba",
      "state": "MG",
      "zip_code": "38015-320",
      "address": "R. Visc. do Uruguai, 227 - Estados Unidos, Uberaba - MG, 38015-320, Brazil",
      "open_time": "08:00",
      "close_time": "18:00",
      "forced_status": null,
      "is_premium": false,
      "verified": true,
      "rating": 5,
      "review_count": 8,
      "created_at": 1764637132768,
      "owner_id": "admin_import"
    },
    {
      "business_id": "goog_ChIJPQlNxsPRupQRfD-SvDyl2RE",
      "google_place_id": "ChIJPQlNxsPRupQRfD-SvDyl2RE",
      "name": "Oficina Mec√¢nica do Nelsinho Multimarcas",
      "category": "Servi√ßos",
      "description": "Servi√ßos em Uberaba. Classifica√ß√£o: 4.7‚≠ê (18 avalia√ß√µes). O que dizem: \"Excelente atendimento e profissionais qualificados\"",
      "whatsapp": "(34) 3336-3187",
      "website": "",
      "latitude": -19.7682113,
      "longitude": -47.9371295,
      "street": "Rua El√≠as Ferreira",
      "number": "301",
      "neighborhood": "Cidade Jardim",
      "city": "Uberaba",
      "state": "MG",
      "zip_code": "38030-035",
      "address": "R. El√≠as Ferreira, 301 - Cidade Jardim, Uberaba - MG, 38030-035, Brazil",
      "open_time": "08:00",
      "close_time": "18:00",
      "forced_status": null,
      "is_premium": false,
      "verified": true,
      "rating": 4.7,
      "review_count": 18,
      "created_at": 1764637133120,
      "owner_id": "admin_import"
    },
    {
      "business_id": "goog_ChIJI05a5hjRupQRizA6EI3lZfY",
      "google_place_id": "ChIJI05a5hjRupQRizA6EI3lZfY",
      "name": "Bosch Car Service - Nacional Uberaba Pe√ßas e Servi√ßos II",
      "category": "Servi√ßos",
      "description": "Servi√ßos em Uberaba. Classifica√ß√£o: 4.4‚≠ê (100 avalia√ß√µes). O que dizem: \"Top\"",
      "whatsapp": "(34) 3311-9300",
      "website": "https://nacionaluberaba.com.br/",
      "latitude": -19.7740248,
      "longitude": -47.9455163,
      "street": "Rua Rui Mesquita",
      "number": "321",
      "neighborhood": "Jardim Induberaba",
      "city": "Uberaba",
      "state": "MG",
      "zip_code": "38045-200",
      "address": "R. Rui Mesquita, 321 - Jardim Induberaba, Uberaba - MG, 38045-200, Brazil",
      "open_time": "08:00",
      "close_time": "18:00",
      "forced_status": null,
      "is_premium": false,
      "verified": true,
      "rating": 4.4,
      "review_count": 100,
      "created_at": 1764637133458,
      "owner_id": "admin_import"
    },
    {
      "business_id": "goog_ChIJdwqLdP_RupQRm6MU9Y9pzOU",
      "google_place_id": "ChIJdwqLdP_RupQRm6MU9Y9pzOU",
      "name": "Oficina Mec√¢nica em Uberaba | GR AUTO CENTER",
      "category": "Servi√ßos",
      "description": "Servi√ßos em Uberaba. Classifica√ß√£o: 4.8‚≠ê (19 avalia√ß√µes). O que dizem: \"Pessoal, tanto quanto propriet√°rios, administrativos e mec√¢nicos, cordiais atentos a  servi√ßos, com ...\"",
      "whatsapp": "(34) 3352-4736",
      "website": "https://www.instagram.com/autocentergr_uberaba/",
      "latitude": -19.7676394,
      "longitude": -47.93928,
      "street": "Avenida Guilherme Ferreira",
      "number": "2161",
      "neighborhood": "S√£o Benedito",
      "city": "Uberaba",
      "state": "MG",
      "zip_code": "38022-200",
      "address": "Av. Guilherme Ferreira, 2161 - S√£o Benedito, Uberaba - MG, 38022-200, Brazil",
      "open_time": "08:00",
      "close_time": "18:00",
      "forced_status": null,
      "is_premium": false,
      "verified": true,
      "rating": 4.8,
      "review_count": 19,
      "created_at": 1764637133794,
      "owner_id": "admin_import"
    },
    {
      "business_id": "goog_ChIJQ7QXiRXQupQRR_wVXZ1pz_s",
      "google_place_id": "ChIJQ7QXiRXQupQRR_wVXZ1pz_s",
      "name": "Alicio Centro Automotivo",
      "category": "Servi√ßos",
      "description": "Servi√ßos em Uberaba. Classifica√ß√£o: 4.7‚≠ê (101 avalia√ß√µes). O que dizem: \"O conhecimento t√©cnico comercializado na presta√ß√£o de qualquer servi√ßo especializado √© completado co...\"",
      "whatsapp": "(34) 3311-2781",
      "website": "https://www.aliciocentroautomotivo.com.br/",
      "latitude": -19.76659,
      "longitude": -47.9381818,
      "street": "Avenida Guilherme Ferreira",
      "number": "1957",
      "neighborhood": "Centro",
      "city": "Uberaba",
      "state": "MG",
      "zip_code": "38022-200",
      "address": "Av. Guilherme Ferreira, 1957 - Centro, Uberaba - MG, 38022-200, Brazil",
      "open_time": "08:00",
      "close_time": "18:00",
      "forced_status": null,
      "is_premium": false,
      "verified": true,
      "rating": 4.7,
      "review_count": 101,
      "created_at": 1764637134157,
      "owner_id": "admin_import"
    },
    {
      "business_id": "goog_ChIJN-D3H0DQupQR6zSlR6Yfy64",
      "google_place_id": "ChIJN-D3H0DQupQR6zSlR6Yfy64",
      "name": "River Auto Center",
      "category": "Servi√ßos",
      "description": "Servi√ßos em Uberaba. Classifica√ß√£o: 4.7‚≠ê (144 avalia√ß√µes). O que dizem: \"Auto center ideal.\"",
      "whatsapp": "(34) 2103-0800",
      "website": "http://riverautocenter.com.br/",
      "latitude": -19.7675602,
      "longitude": -47.9429289,
      "street": "Avenida Coronel Joaquim de Oliveira Prata",
      "number": "630",
      "neighborhood": "Bom Retiro",
      "city": "Uberaba",
      "state": "MG",
      "zip_code": "38022-290",
      "address": "Av. Cel. Joaquim de Oliveira Prata, 630 - Bom Retiro, Uberaba - MG, 38022-290, Brazil",
      "open_time": "08:00",
      "close_time": "18:00",
      "forced_status": null,
      "is_premium": false,
      "verified": true,
      "rating": 4.7,
      "review_count": 144,
      "created_at": 1764637134565,
      "owner_id": "admin_import"
    },
    {
      "business_id": "goog_ChIJld0Or-rPupQR0lccUb_Zt9Y",
      "google_place_id": "ChIJld0Or-rPupQR0lccUb_Zt9Y",
      "name": "BR Auto Center",
      "category": "Servi√ßos",
      "description": "Servi√ßos em Uberaba. Classifica√ß√£o: 4.6‚≠ê (9 avalia√ß√µes). O que dizem: \"Tive uma √≥tima experi√™ncia com a oficina. O respons√°vel e Engenheiro Mec√¢nico Guilherme foi super at...\"",
      "whatsapp": "(34) 3313-0043",
      "website": "",
      "latitude": -19.7564463,
      "longitude": -47.9025383,
      "street": "Avenida Nossa Senhora do Desterro",
      "number": "286",
      "neighborhood": "Conjunto Manoel Mendes",
      "city": "Uberaba",
      "state": "MG",
      "zip_code": "38082-291",
      "address": "Av. Nossa Senhora do Desterro, 286 - Conj. Manoel Mendes, Uberaba - MG, 38082-291, Brazil",
      "open_time": "08:00",
      "close_time": "18:00",
      "forced_status": null,
      "is_premium": false,
      "verified": true,
      "rating": 4.6,
      "review_count": 9,
      "created_at": 1764637135222,
      "owner_id": "admin_import"
    },
    {
      "business_id": "goog_ChIJbSSQw_PPupQRS3sneX1dJ1s",
      "google_place_id": "ChIJbSSQw_PPupQRS3sneX1dJ1s",
      "name": "Lider Escapamentos 2",
      "category": "Servi√ßos",
      "description": "Servi√ßos em Uberaba. Classifica√ß√£o: 4.2‚≠ê (6 avalia√ß√µes). O que dizem: \"Excelente atendimento e um bom pre√ßoüëèüëè\"",
      "whatsapp": "(34) 3522-2008",
      "website": "",
      "latitude": -19.7498694,
      "longitude": -47.8995322,
      "street": "Avenida Nossa Senhora do Desterro",
      "number": "1109",
      "neighborhood": "Jardim Brasilia",
      "city": "Uberaba",
      "state": "MG",
      "zip_code": "38082-025",
      "address": "Av. Nossa Senhora do Desterro, 1109 - Jardim Brasilia, Uberaba - MG, 38082-025, Brazil",
      "open_time": "08:00",
      "close_time": "18:00",
      "forced_status": null,
      "is_premium": false,
      "verified": true,
      "rating": 4.2,
      "review_count": 6,
      "created_at": 1764637135934,
      "owner_id": "admin_import"
    },
    {
      "business_id": "goog_ChIJG2UnimPQupQRzW55GctBYyI",
      "google_place_id": "ChIJG2UnimPQupQRzW55GctBYyI",
      "name": "Mikim Multimarcas",
      "category": "Servi√ßos",
      "description": "Servi√ßos em Uberaba. Classifica√ß√£o: 4.8‚≠ê (92 avalia√ß√µes). O que dizem: \"Top\"",
      "whatsapp": "(34) 3316-7154",
      "website": "",
      "latitude": -19.7778332,
      "longitude": -47.9565134,
      "street": "Avenida Cristo Rei",
      "number": "1240",
      "neighborhood": "Parque das Americas",
      "city": "Uberaba",
      "state": "MG",
      "zip_code": "38045-250",
      "address": "Av. Cristo Rei, 1240 - Parque das Americas, Uberaba - MG, 38045-250, Brazil",
      "open_time": "08:00",
      "close_time": "18:00",
      "forced_status": null,
      "is_premium": false,
      "verified": true,
      "rating": 4.8,
      "review_count": 92,
      "created_at": 1764637136612,
      "owner_id": "admin_import"
    },
    {
      "business_id": "goog_ChIJMZMJHm3RupQRtOZE0IBC5zg",
      "google_place_id": "ChIJMZMJHm3RupQRtOZE0IBC5zg",
      "name": "Oficina Mec√¢nica Johnny Bravo",
      "category": "Servi√ßos",
      "description": "Servi√ßos em Uberaba. Classifica√ß√£o: 4.4‚≠ê (28 avalia√ß√µes). O que dizem: \"Fui bem atendida üòÅ meu carro ficou excelente!! Voltarei mais vezes. Atendimento nota 1000 !! Oficin...\"",
      "whatsapp": "(34) 99670-4094",
      "website": "",
      "latitude": -19.7337735,
      "longitude": -47.97145200000001,
      "street": "Avenida Jos√© Sol√© Filho",
      "number": "720",
      "neighborhood": "Serra Dourada",
      "city": "Uberaba",
      "state": "MG",
      "zip_code": "38057-620",
      "address": "Av. Jos√© Sol√© Filho, 720 - Serra Dourada, Uberaba - MG, 38057-620, Brazil",
      "open_time": "08:00",
      "close_time": "18:00",
      "forced_status": null,
      "is_premium": false,
      "verified": true,
      "rating": 4.4,
      "review_count": 28,
      "created_at": 1764637136919,
      "owner_id": "admin_import"
    },
    {
      "business_id": "goog_ChIJ2xUO1jLQupQRdtk85dY_B5k",
      "google_place_id": "ChIJ2xUO1jLQupQRdtk85dY_B5k",
      "name": "UberScap Escapamentos",
      "category": "Servi√ßos",
      "description": "Servi√ßos em Uberaba. Classifica√ß√£o: 4‚≠ê (41 avalia√ß√µes). O que dizem: \"Atendimento de excel√™ncia. √ìtimos mec√¢nicos. Diagn√≥stico e solu√ß√£o r√°pido!\nE a prosa no caf√© ‚òïü§†üëçüèº...\"",
      "whatsapp": "(34) 3312-2000",
      "website": "",
      "latitude": -19.7459717,
      "longitude": -47.9337637,
      "street": "Avenida Doutor Fid√©lis R√©is",
      "number": "246",
      "neighborhood": "Centro",
      "city": "Uberaba",
      "state": "MG",
      "zip_code": "38010-030",
      "address": "Av. Dr. Fid√©lis R√©is, 246 - Centro, Uberaba - MG, 38010-030, Brazil",
      "open_time": "08:00",
      "close_time": "18:00",
      "forced_status": null,
      "is_premium": false,
      "verified": true,
      "rating": 4,
      "review_count": 41,
      "created_at": 1764637137333,
      "owner_id": "admin_import"
    },
    {
      "business_id": "goog_ChIJcV5ujlXRupQRswMTfTHujgk",
      "google_place_id": "ChIJcV5ujlXRupQRswMTfTHujgk",
      "name": "Ciclo Otto Solu√ß√µes Automotivas",
      "category": "Servi√ßos",
      "description": "Servi√ßos em Uberaba. Classifica√ß√£o: 4.8‚≠ê (43 avalia√ß√µes). O que dizem: \"Atendimento bem educado e cordial, por√©m realizou diagn√≥stico e n√£o me notificou dos custos. No fina...\"",
      "whatsapp": "(34) 3071-0223",
      "website": "",
      "latitude": -19.7428312,
      "longitude": -47.9412617,
      "street": "Rua Bento Ferreira",
      "number": "87",
      "neighborhood": "Merc√™s",
      "city": "Uberaba",
      "state": "MG",
      "zip_code": "38060-240",
      "address": "R. Bento Ferreira, 87 - Merc√™s, Uberaba - MG, 38060-240, Brazil",
      "open_time": "08:00",
      "close_time": "18:00",
      "forced_status": null,
      "is_premium": false,
      "verified": true,
      "rating": 4.8,
      "review_count": 43,
      "created_at": 1764637137689,
      "owner_id": "admin_import"
    },
    {
      "business_id": "goog_ChIJ65BPfDfQupQRQbOI9vZcMSI",
      "google_place_id": "ChIJ65BPfDfQupQRQbOI9vZcMSI",
      "name": "Prevencar Repara√ß√£o Automotiva",
      "category": "Servi√ßos",
      "description": "Servi√ßos em Uberaba. Classifica√ß√£o: 4.9‚≠ê (87 avalia√ß√µes). O que dizem: \"Top\"",
      "whatsapp": "(34) 3321-9245",
      "website": "",
      "latitude": -19.7732102,
      "longitude": -47.9383059,
      "street": "Rua Ant√¥nio Salge",
      "number": "226",
      "neighborhood": "Vila Sao Cristovao",
      "city": "Uberaba",
      "state": "MG",
      "zip_code": "38040-250",
      "address": "R. Ant√¥nio Salge, 226 - Vila Sao Cristovao, Uberaba - MG, 38040-250, Brazil",
      "open_time": "08:00",
      "close_time": "18:00",
      "forced_status": null,
      "is_premium": false,
      "verified": true,
      "rating": 4.9,
      "review_count": 87,
      "created_at": 1764637138002,
      "owner_id": "admin_import"
    },
    {
      "business_id": "goog_ChIJ2bY3zM7RupQR9FZWDuo2W7I",
      "google_place_id": "ChIJ2bY3zM7RupQR9FZWDuo2W7I",
      "name": "Centro Automotivo Irm√£os rocha",
      "category": "Servi√ßos",
      "description": "Servi√ßos em Uberaba. Classifica√ß√£o: 4.8‚≠ê (117 avalia√ß√µes). O que dizem: \"Quero deixar registrado meu elogio pelo excelente servi√ßo prestado por essa oficina. Al√©m do √≥timo a...\"",
      "whatsapp": "(34) 3312-5002",
      "website": "",
      "latitude": -19.7400658,
      "longitude": -47.9365045,
      "street": "Rua Doutor Zeferino",
      "number": "177",
      "neighborhood": "Fabr√≠cio",
      "city": "Uberaba",
      "state": "MG",
      "zip_code": "38065-270",
      "address": "R. Doutor Zeferino, 177 - Fabr√≠cio, Uberaba - MG, 38065-270, Brazil",
      "open_time": "08:00",
      "close_time": "18:00",
      "forced_status": null,
      "is_premium": false,
      "verified": true,
      "rating": 4.8,
      "review_count": 117,
      "created_at": 1764637138356,
      "owner_id": "admin_import"
    },
    {
      "business_id": "goog_ChIJDfsn9RnQupQR6-krOcsfnTA",
      "google_place_id": "ChIJDfsn9RnQupQR6-krOcsfnTA",
      "name": "L A Multimarcas",
      "category": "Servi√ßos",
      "description": "Servi√ßos em Uberaba. Classifica√ß√£o: 4.9‚≠ê (23 avalia√ß√µes). O que dizem: \"Regular\"",
      "whatsapp": "(34) 99962-8777",
      "website": "",
      "latitude": -19.7687058,
      "longitude": -47.93051819999999,
      "street": "Rua Granito",
      "number": "497",
      "neighborhood": "Leblon",
      "city": "Uberaba",
      "state": "MG",
      "zip_code": "38030-340",
      "address": "R. Granito, 497 - Leblon, Uberaba - MG, 38030-340, Brazil",
      "open_time": "08:00",
      "close_time": "18:00",
      "forced_status": null,
      "is_premium": false,
      "verified": true,
      "rating": 4.9,
      "review_count": 23,
      "created_at": 1764637138764,
      "owner_id": "admin_import"
    },
    {
      "business_id": "goog_ChIJ7Rmz-mzQupQRP1t13X8EFo8",
      "google_place_id": "ChIJ7Rmz-mzQupQRP1t13X8EFo8",
      "name": "Oficina Ribeiro",
      "category": "Servi√ßos",
      "description": "Servi√ßos em Uberaba. Classifica√ß√£o: 4‚≠ê (4 avalia√ß√µes). O que dizem: \"Very good\"",
      "whatsapp": "(34) 99824-9230",
      "website": "",
      "latitude": -19.7744246,
      "longitude": -47.943473,
      "street": "Rua Doutor Avelino In√°cio de Oliveira",
      "number": "154",
      "neighborhood": "Jardim Induberaba",
      "city": "Uberaba",
      "state": "MG",
      "zip_code": "38040-130",
      "address": "R. Dr. Avelino In√°cio de Oliveira, 154 - Jardim Induberaba, Uberaba - MG, 38040-130, Brazil",
      "open_time": "08:00",
      "close_time": "18:00",
      "forced_status": null,
      "is_premium": false,
      "verified": true,
      "rating": 4,
      "review_count": 4,
      "created_at": 1764637139101,
      "owner_id": "admin_import"
    },
    {
      "business_id": "1765673814609",
      "owner_id": "admin_created",
      "name": "Voting Test Biz",
      "category": "Test",
      "description": "",
      "whatsapp": "11999999999",
      "latitude": 0,
      "longitude": 0,
      "open_time": "08:00",
      "close_time": "18:00",
      "forced_status": null,
      "is_premium": false,
      "created_at": 1765673814609,
      "updated_at": 1765673814609,
      "verified": true
    },
    {
      "business_id": "1765674720996",
      "owner_id": "admin_created",
      "name": "Pizzaria Demonstra√ß√£o",
      "category": "Alimenta√ß√£o",
      "description": "",
      "whatsapp": "11988887777",
      "latitude": -19.747,
      "longitude": -47.939,
      "open_time": "08:00",
      "close_time": "18:00",
      "forced_status": null,
      "is_premium": false,
      "created_at": 1765674720996,
      "updated_at": 1765674721012,
      "verified": true,
      "analytics.likes": 1,
      "analytics.dislikes": 0
    },
    {
      "business_id": "056248f3-9197-4cd3-bebc-ac79b1433087",
      "owner_id": "admin_import",
      "google_place_id": "ChIJ21hHxAlnv5QROJqAEsRI5SI",
      "name": "Mana Poke Bauru",
      "category": "Alimenta√ß√£o",
      "description": "restaurant, food, point_of_interest, establishment",
      "open_time": "08:00",
      "close_time": "18:00",
      "forced_status": null,
      "whatsapp": "",
      "latitude": -22.3317782,
      "longitude": -49.0681385,
      "address": "R. Ver. Joaquim da Silva Martha, 15-10 - Vila Santa Teresa, Bauru - SP, 17012-030",
      "rating": 4.8,
      "user_ratings_total": 1333,
      "review_count": 1333,
      "is_premium": false,
      "created_at": 1765717714869,
      "updated_at": 1765717714869,
      "google_types": [
        "restaurant",
        "food",
        "point_of_interest",
        "establishment"
      ]
    },
    {
      "business_id": "43f9f2bb-721f-424b-a320-19eec0a3e01d",
      "owner_id": "admin_import",
      "google_place_id": "ChIJNTAbWLlnv5QRfDpj5n33UGU",
      "name": "Dona Branca - Restaurante Boulevard Shopping",
      "category": "Alimenta√ß√£o",
      "description": "restaurant, meal_delivery, meal_takeaway, food, point_of_interest, establishment",
      "open_time": "08:00",
      "close_time": "18:00",
      "forced_status": null,
      "whatsapp": "",
      "latitude": -22.3162514,
      "longitude": -49.066164,
      "address": "Rua General Marcondes Salgado 11 - 39 - Entrada Principal Loja 265, R. Marcondes Salgado - Ch√°cara das Flores, Bauru - SP, 17013-113",
      "rating": 4.4,
      "user_ratings_total": 2337,
      "review_count": 2337,
      "is_premium": false,
      "created_at": 1765718756310,
      "updated_at": 1765718756310,
      "google_types": [
        "restaurant",
        "meal_delivery",
        "meal_takeaway",
        "food",
        "point_of_interest",
        "establishment"
      ]
    },
    {
      "business_id": "9fa1cad1-e85e-4b27-b675-8c3fff1d2ddd",
      "owner_id": "admin_import",
      "google_place_id": "ChIJ_ZSSp85nv5QRKHPzL7JJbxY",
      "name": "Ravih Rooftop",
      "category": "Alimenta√ß√£o",
      "description": "restaurant, food, point_of_interest, establishment",
      "open_time": "08:00",
      "close_time": "18:00",
      "forced_status": null,
      "whatsapp": "",
      "latitude": -22.3523593,
      "longitude": -49.0501051,
      "address": "Av. Get√∫lio Vargas, 22-25 - Jardim America, Bauru - SP, 17017-383",
      "rating": 3.9,
      "user_ratings_total": 56,
      "review_count": 56,
      "is_premium": false,
      "created_at": 1765718790433,
      "updated_at": 1765718790433,
      "google_types": [
        "restaurant",
        "food",
        "point_of_interest",
        "establishment"
      ]
    },
    {
      "business_id": "c381ce0f-7549-41a8-9e40-f2485584e390",
      "owner_id": "admin_import",
      "google_place_id": "ChIJx1cow6Nnv5QRyIL8zUf79ss",
      "name": "Restaurante Girassol",
      "category": "Alimenta√ß√£o",
      "description": "restaurant, food, point_of_interest, establishment",
      "open_time": "08:00",
      "close_time": "18:00",
      "forced_status": null,
      "whatsapp": "",
      "latitude": -22.3320693,
      "longitude": -49.0629381,
      "address": "R. Maria Jos√©, 9-75 - Vila Guedes de Azevedo, Bauru - SP, 17012-323",
      "rating": 4.6,
      "user_ratings_total": 596,
      "review_count": 596,
      "is_premium": false,
      "created_at": 1765718834131,
      "updated_at": 1765718885023,
      "google_types": [
        "restaurant",
        "food",
        "point_of_interest",
        "establishment"
      ],
      "city": "Bauru",
      "state": "SP"
    }
  ],
  "subscriptions": [],
  "transactions": [],
  "leads": [
    {
      "uid": "lead_1764420795078",
      "email": "test@lead.com",
      "name": "Test Lead",
      "phone": "",
      "city": "Uberaba",
      "state": "MG",
      "created_at": "2025-11-29T12:53:15.078Z",
      "stats": {
        "visits": 0,
        "reviews": 0,
        "whatsapp_clicks": 0,
        "referrals": 0
      },
      "id": "lead_1764420795078"
    },
    {
      "uid": "lead_1764421559940",
      "email": "test2@lead.com",
      "name": "Test Lead 2",
      "phone": "",
      "city": "Uberaba",
      "state": "MG",
      "created_at": "2025-11-29T13:05:59.940Z",
      "stats": {
        "visits": 0,
        "reviews": 0,
        "whatsapp_clicks": 0,
        "referrals": 0
      },
      "id": "lead_1764421559940"
    },
    {
      "uid": "lead_1764421626965",
      "email": "test2@lead.com",
      "name": "Test Lead 2",
      "phone": "",
      "city": "Uberaba",
      "state": "MG",
      "created_at": "2025-11-29T13:07:06.965Z",
      "stats": {
        "visits": 0,
        "reviews": 0,
        "whatsapp_clicks": 0,
        "referrals": 0
      },
      "id": "lead_1764421626965"
    },
    {
      "uid": "lead_1764422841988",
      "email": "test3@lead.com",
      "name": "Updated Lead 3",
      "phone": "",
      "city": "Uberaba",
      "state": "MG",
      "created_at": "2025-11-29T13:27:21.988Z",
      "stats": {
        "visits": 0,
        "reviews": 0,
        "whatsapp_clicks": 0,
        "referrals": 0
      },
      "id": "lead_1764422841988"
    },
    {
      "uid": "mMdv0j8xeNNfrPBHC7fS2mxVwpy2",
      "email": "google@fastboom.com.br",
      "name": "Rodrigo Castro Ribeiro",
      "phone": "34984278200",
      "city": "Uberaba",
      "state": "MG",
      "profession": "CORRETOR",
      "referral_source": "instagram",
      "has_business": false,
      "created_at": "2025-11-29T13:34:03.993Z",
      "last_active": "2025-11-30T04:23:42.252Z",
      "stats": {
        "visits": 109,
        "reviews": 0,
        "whatsapp_clicks": 0,
        "referrals": 0
      },
      "id": "mMdv0j8xeNNfrPBHC7fS2mxVwpy2"
    }
  ],
  "lead_actions": [
    {
      "uid": "mMdv0j8xeNNfrPBHC7fS2mxVwpy2",
      "action_type": "view_business",
      "target_id": "goog_ChIJU0NlDHPRupQRjL91lEYMqxQ",
      "details": {
        "name": "Sabor da Massa"
      },
      "timestamp": 1764473743559,
      "id": "j8bfebnf4u"
    },
    {
      "uid": "mMdv0j8xeNNfrPBHC7fS2mxVwpy2",
      "action_type": "view_business",
      "target_id": "goog_ChIJL7UsBLfPupQRBTW2IO62Pzg",
      "details": {
        "name": "La Pizza uberaba Pizzaria"
      },
      "timestamp": 1764473743580,
      "id": "7zl3f8cksmx"
    },
    {
      "uid": "mMdv0j8xeNNfrPBHC7fS2mxVwpy2",
      "action_type": "view_business",
      "target_id": "goog_ChIJU0NlDHPRupQRjL91lEYMqxQ",
      "details": {
        "name": "Sabor da Massa"
      },
      "timestamp": 1764473745584,
      "id": "p97h7tyjil"
    },
    {
      "uid": "mMdv0j8xeNNfrPBHC7fS2mxVwpy2",
      "action_type": "view_business",
      "target_id": "goog_ChIJL7UsBLfPupQRBTW2IO62Pzg",
      "details": {
        "name": "La Pizza uberaba Pizzaria"
      },
      "timestamp": 1764473746077,
      "id": "fpndek3fh4"
    },
    {
      "uid": "mMdv0j8xeNNfrPBHC7fS2mxVwpy2",
      "action_type": "view_business",
      "target_id": "goog_ChIJU0NlDHPRupQRjL91lEYMqxQ",
      "details": {
        "name": "Sabor da Massa"
      },
      "timestamp": 1764473804976,
      "id": "if5imgs839"
    },
    {
      "uid": "mMdv0j8xeNNfrPBHC7fS2mxVwpy2",
      "action_type": "view_business",
      "target_id": "goog_ChIJL7UsBLfPupQRBTW2IO62Pzg",
      "details": {
        "name": "La Pizza uberaba Pizzaria"
      },
      "timestamp": 1764473805549,
      "id": "9yjqfmlehe"
    },
    {
      "uid": "mMdv0j8xeNNfrPBHC7fS2mxVwpy2",
      "action_type": "view_business",
      "target_id": "goog_ChIJU0NlDHPRupQRjL91lEYMqxQ",
      "details": {
        "name": "Sabor da Massa"
      },
      "timestamp": 1764473864948,
      "id": "47qlrrr4ok2"
    },
    {
      "uid": "mMdv0j8xeNNfrPBHC7fS2mxVwpy2",
      "action_type": "view_business",
      "target_id": "goog_ChIJL7UsBLfPupQRBTW2IO62Pzg",
      "details": {
        "name": "La Pizza uberaba Pizzaria"
      },
      "timestamp": 1764473865706,
      "id": "pzeqoxpoj5"
    },
    {
      "uid": "mMdv0j8xeNNfrPBHC7fS2mxVwpy2",
      "action_type": "view_business",
      "target_id": "goog_ChIJU0NlDHPRupQRjL91lEYMqxQ",
      "details": {
        "name": "Sabor da Massa"
      },
      "timestamp": 1764473924932,
      "id": "65hsocguz3y"
    },
    {
      "uid": "mMdv0j8xeNNfrPBHC7fS2mxVwpy2",
      "action_type": "view_business",
      "target_id": "goog_ChIJL7UsBLfPupQRBTW2IO62Pzg",
      "details": {
        "name": "La Pizza uberaba Pizzaria"
      },
      "timestamp": 1764473925566,
      "id": "to61tmsuql"
    },
    {
      "uid": "mMdv0j8xeNNfrPBHC7fS2mxVwpy2",
      "action_type": "view_business",
      "target_id": "goog_ChIJU0NlDHPRupQRjL91lEYMqxQ",
      "details": {
        "name": "Sabor da Massa"
      },
      "timestamp": 1764473984981,
      "id": "iwckl2ibf7c"
    },
    {
      "uid": "mMdv0j8xeNNfrPBHC7fS2mxVwpy2",
      "action_type": "view_business",
      "target_id": "goog_ChIJL7UsBLfPupQRBTW2IO62Pzg",
      "details": {
        "name": "La Pizza uberaba Pizzaria"
      },
      "timestamp": 1764473985623,
      "id": "aft9rdq1cpn"
    },
    {
      "uid": "mMdv0j8xeNNfrPBHC7fS2mxVwpy2",
      "action_type": "view_business",
      "target_id": "goog_ChIJU0NlDHPRupQRjL91lEYMqxQ",
      "details": {
        "name": "Sabor da Massa"
      },
      "timestamp": 1764474045039,
      "id": "u5gbgi1nqv"
    },
    {
      "uid": "mMdv0j8xeNNfrPBHC7fS2mxVwpy2",
      "action_type": "view_business",
      "target_id": "goog_ChIJL7UsBLfPupQRBTW2IO62Pzg",
      "details": {
        "name": "La Pizza uberaba Pizzaria"
      },
      "timestamp": 1764474045546,
      "id": "n4kz1xb8zqi"
    },
    {
      "uid": "mMdv0j8xeNNfrPBHC7fS2mxVwpy2",
      "action_type": "view_business",
      "target_id": "goog_ChIJL7UsBLfPupQRBTW2IO62Pzg",
      "details": {
        "name": "La Pizza uberaba Pizzaria"
      },
      "timestamp": 1764474046609,
      "id": "q34lwq9vhi"
    },
    {
      "uid": "mMdv0j8xeNNfrPBHC7fS2mxVwpy2",
      "action_type": "view_business",
      "target_id": "goog_ChIJU0NlDHPRupQRjL91lEYMqxQ",
      "details": {
        "name": "Sabor da Massa"
      },
      "timestamp": 1764474046737,
      "id": "2q9ruvilsca"
    },
    {
      "uid": "mMdv0j8xeNNfrPBHC7fS2mxVwpy2",
      "action_type": "view_business",
      "target_id": "goog_ChIJL7UsBLfPupQRBTW2IO62Pzg",
      "details": {
        "name": "La Pizza uberaba Pizzaria"
      },
      "timestamp": 1764474106190,
      "id": "a8nwv3ejdus"
    },
    {
      "uid": "mMdv0j8xeNNfrPBHC7fS2mxVwpy2",
      "action_type": "view_business",
      "target_id": "goog_ChIJU0NlDHPRupQRjL91lEYMqxQ",
      "details": {
        "name": "Sabor da Massa"
      },
      "timestamp": 1764474106337,
      "id": "pn4u5o8cre"
    },
    {
      "uid": "mMdv0j8xeNNfrPBHC7fS2mxVwpy2",
      "action_type": "view_business",
      "target_id": "goog_ChIJL7UsBLfPupQRBTW2IO62Pzg",
      "details": {
        "name": "La Pizza uberaba Pizzaria"
      },
      "timestamp": 1764474166184,
      "id": "n3kae2r1hii"
    },
    {
      "uid": "mMdv0j8xeNNfrPBHC7fS2mxVwpy2",
      "action_type": "view_business",
      "target_id": "goog_ChIJU0NlDHPRupQRjL91lEYMqxQ",
      "details": {
        "name": "Sabor da Massa"
      },
      "timestamp": 1764474166443,
      "id": "q787oalf2u"
    },
    {
      "uid": "mMdv0j8xeNNfrPBHC7fS2mxVwpy2",
      "action_type": "view_business",
      "target_id": "goog_ChIJL7UsBLfPupQRBTW2IO62Pzg",
      "details": {
        "name": "La Pizza uberaba Pizzaria"
      },
      "timestamp": 1764474226234,
      "id": "yy4rzunszcc"
    },
    {
      "uid": "mMdv0j8xeNNfrPBHC7fS2mxVwpy2",
      "action_type": "view_business",
      "target_id": "goog_ChIJU0NlDHPRupQRjL91lEYMqxQ",
      "details": {
        "name": "Sabor da Massa"
      },
      "timestamp": 1764474226571,
      "id": "66mfb7es57x"
    },
    {
      "uid": "mMdv0j8xeNNfrPBHC7fS2mxVwpy2",
      "action_type": "view_business",
      "target_id": "goog_ChIJL7UsBLfPupQRBTW2IO62Pzg",
      "details": {
        "name": "La Pizza uberaba Pizzaria"
      },
      "timestamp": 1764474286185,
      "id": "8lwtlcfva9m"
    },
    {
      "uid": "mMdv0j8xeNNfrPBHC7fS2mxVwpy2",
      "action_type": "view_business",
      "target_id": "goog_ChIJU0NlDHPRupQRjL91lEYMqxQ",
      "details": {
        "name": "Sabor da Massa"
      },
      "timestamp": 1764474286309,
      "id": "p17yvaz6yu"
    },
    {
      "uid": "mMdv0j8xeNNfrPBHC7fS2mxVwpy2",
      "action_type": "view_business",
      "target_id": "goog_ChIJL7UsBLfPupQRBTW2IO62Pzg",
      "details": {
        "name": "La Pizza uberaba Pizzaria"
      },
      "timestamp": 1764474346209,
      "id": "m5bhof7ut39"
    },
    {
      "uid": "mMdv0j8xeNNfrPBHC7fS2mxVwpy2",
      "action_type": "view_business",
      "target_id": "goog_ChIJU0NlDHPRupQRjL91lEYMqxQ",
      "details": {
        "name": "Sabor da Massa"
      },
      "timestamp": 1764474346802,
      "id": "m23xwuxm8p"
    },
    {
      "uid": "mMdv0j8xeNNfrPBHC7fS2mxVwpy2",
      "action_type": "view_business",
      "target_id": "goog_ChIJU0NlDHPRupQRjL91lEYMqxQ",
      "details": {
        "name": "Sabor da Massa"
      },
      "timestamp": 1764474347969,
      "id": "2au4p65jm21"
    },
    {
      "uid": "mMdv0j8xeNNfrPBHC7fS2mxVwpy2",
      "action_type": "view_business",
      "target_id": "goog_ChIJL7UsBLfPupQRBTW2IO62Pzg",
      "details": {
        "name": "La Pizza uberaba Pizzaria"
      },
      "timestamp": 1764474348404,
      "id": "btgqvtar8y"
    },
    {
      "uid": "mMdv0j8xeNNfrPBHC7fS2mxVwpy2",
      "action_type": "view_business",
      "target_id": "goog_ChIJU0NlDHPRupQRjL91lEYMqxQ",
      "details": {
        "name": "Sabor da Massa"
      },
      "timestamp": 1764474407573,
      "id": "it4mbuc4gos"
    },
    {
      "uid": "mMdv0j8xeNNfrPBHC7fS2mxVwpy2",
      "action_type": "view_business",
      "target_id": "goog_ChIJL7UsBLfPupQRBTW2IO62Pzg",
      "details": {
        "name": "La Pizza uberaba Pizzaria"
      },
      "timestamp": 1764474407653,
      "id": "g78h24jmflo"
    },
    {
      "uid": "mMdv0j8xeNNfrPBHC7fS2mxVwpy2",
      "action_type": "view_business",
      "target_id": "goog_ChIJU0NlDHPRupQRjL91lEYMqxQ",
      "details": {
        "name": "Sabor da Massa"
      },
      "timestamp": 1764474467578,
      "id": "7w4o2yeayy2"
    },
    {
      "uid": "mMdv0j8xeNNfrPBHC7fS2mxVwpy2",
      "action_type": "view_business",
      "target_id": "goog_ChIJL7UsBLfPupQRBTW2IO62Pzg",
      "details": {
        "name": "La Pizza uberaba Pizzaria"
      },
      "timestamp": 1764474467675,
      "id": "4ovxclfmrba"
    },
    {
      "uid": "mMdv0j8xeNNfrPBHC7fS2mxVwpy2",
      "action_type": "view_business",
      "target_id": "goog_ChIJU0NlDHPRupQRjL91lEYMqxQ",
      "details": {
        "name": "Sabor da Massa"
      },
      "timestamp": 1764474527584,
      "id": "598u9tbayjo"
    },
    {
      "uid": "mMdv0j8xeNNfrPBHC7fS2mxVwpy2",
      "action_type": "view_business",
      "target_id": "goog_ChIJL7UsBLfPupQRBTW2IO62Pzg",
      "details": {
        "name": "La Pizza uberaba Pizzaria"
      },
      "timestamp": 1764474527705,
      "id": "8xt5n8bf03o"
    },
    {
      "uid": "mMdv0j8xeNNfrPBHC7fS2mxVwpy2",
      "action_type": "view_business",
      "target_id": "goog_ChIJU0NlDHPRupQRjL91lEYMqxQ",
      "details": {
        "name": "Sabor da Massa"
      },
      "timestamp": 1764474587602,
      "id": "3zss010w1gp"
    },
    {
      "uid": "mMdv0j8xeNNfrPBHC7fS2mxVwpy2",
      "action_type": "view_business",
      "target_id": "goog_ChIJL7UsBLfPupQRBTW2IO62Pzg",
      "details": {
        "name": "La Pizza uberaba Pizzaria"
      },
      "timestamp": 1764474587751,
      "id": "v8r1a1aomqo"
    },
    {
      "uid": "mMdv0j8xeNNfrPBHC7fS2mxVwpy2",
      "action_type": "view_business",
      "target_id": "goog_ChIJU0NlDHPRupQRjL91lEYMqxQ",
      "details": {
        "name": "Sabor da Massa"
      },
      "timestamp": 1764474647574,
      "id": "2e9uvgmhcmz"
    },
    {
      "uid": "mMdv0j8xeNNfrPBHC7fS2mxVwpy2",
      "action_type": "view_business",
      "target_id": "goog_ChIJL7UsBLfPupQRBTW2IO62Pzg",
      "details": {
        "name": "La Pizza uberaba Pizzaria"
      },
      "timestamp": 1764474647686,
      "id": "1a7qb3b7naw"
    },
    {
      "uid": "mMdv0j8xeNNfrPBHC7fS2mxVwpy2",
      "action_type": "view_business",
      "target_id": "goog_ChIJU0NlDHPRupQRjL91lEYMqxQ",
      "details": {
        "name": "Sabor da Massa"
      },
      "timestamp": 1764474649021,
      "id": "i7i232a438l"
    },
    {
      "uid": "mMdv0j8xeNNfrPBHC7fS2mxVwpy2",
      "action_type": "view_business",
      "target_id": "goog_ChIJL7UsBLfPupQRBTW2IO62Pzg",
      "details": {
        "name": "La Pizza uberaba Pizzaria"
      },
      "timestamp": 1764474649085,
      "id": "egblk0qwmnr"
    },
    {
      "uid": "mMdv0j8xeNNfrPBHC7fS2mxVwpy2",
      "action_type": "view_business",
      "target_id": "goog_ChIJU0NlDHPRupQRjL91lEYMqxQ",
      "details": {
        "name": "Sabor da Massa"
      },
      "timestamp": 1764474708884,
      "id": "tav2ytt5nws"
    },
    {
      "uid": "mMdv0j8xeNNfrPBHC7fS2mxVwpy2",
      "action_type": "view_business",
      "target_id": "goog_ChIJL7UsBLfPupQRBTW2IO62Pzg",
      "details": {
        "name": "La Pizza uberaba Pizzaria"
      },
      "timestamp": 1764474708925,
      "id": "4z94qjjiwaq"
    },
    {
      "uid": "mMdv0j8xeNNfrPBHC7fS2mxVwpy2",
      "action_type": "view_business",
      "target_id": "goog_ChIJU0NlDHPRupQRjL91lEYMqxQ",
      "details": {
        "name": "Sabor da Massa"
      },
      "timestamp": 1764474768876,
      "id": "iqzyk2k5rl"
    },
    {
      "uid": "mMdv0j8xeNNfrPBHC7fS2mxVwpy2",
      "action_type": "view_business",
      "target_id": "goog_ChIJL7UsBLfPupQRBTW2IO62Pzg",
      "details": {
        "name": "La Pizza uberaba Pizzaria"
      },
      "timestamp": 1764474768911,
      "id": "953ifjqik29"
    },
    {
      "uid": "mMdv0j8xeNNfrPBHC7fS2mxVwpy2",
      "action_type": "view_business",
      "target_id": "goog_ChIJU0NlDHPRupQRjL91lEYMqxQ",
      "details": {
        "name": "Sabor da Massa"
      },
      "timestamp": 1764474828898,
      "id": "ijca4l3aafh"
    },
    {
      "uid": "mMdv0j8xeNNfrPBHC7fS2mxVwpy2",
      "action_type": "view_business",
      "target_id": "goog_ChIJL7UsBLfPupQRBTW2IO62Pzg",
      "details": {
        "name": "La Pizza uberaba Pizzaria"
      },
      "timestamp": 1764474828969,
      "id": "7dl4t4847r2"
    },
    {
      "uid": "mMdv0j8xeNNfrPBHC7fS2mxVwpy2",
      "action_type": "view_business",
      "target_id": "goog_ChIJU0NlDHPRupQRjL91lEYMqxQ",
      "details": {
        "name": "Sabor da Massa"
      },
      "timestamp": 1764474888983,
      "id": "mt12c7g5hd"
    },
    {
      "uid": "mMdv0j8xeNNfrPBHC7fS2mxVwpy2",
      "action_type": "view_business",
      "target_id": "goog_ChIJL7UsBLfPupQRBTW2IO62Pzg",
      "details": {
        "name": "La Pizza uberaba Pizzaria"
      },
      "timestamp": 1764474889031,
      "id": "sko944fru7"
    },
    {
      "uid": "mMdv0j8xeNNfrPBHC7fS2mxVwpy2",
      "action_type": "view_business",
      "target_id": "goog_ChIJU0NlDHPRupQRjL91lEYMqxQ",
      "details": {
        "name": "Sabor da Massa"
      },
      "timestamp": 1764474949002,
      "id": "a3lipu7tvwj"
    },
    {
      "uid": "mMdv0j8xeNNfrPBHC7fS2mxVwpy2",
      "action_type": "view_business",
      "target_id": "goog_ChIJL7UsBLfPupQRBTW2IO62Pzg",
      "details": {
        "name": "La Pizza uberaba Pizzaria"
      },
      "timestamp": 1764474949072,
      "id": "5d50nfd8vee"
    },
    {
      "uid": "mMdv0j8xeNNfrPBHC7fS2mxVwpy2",
      "action_type": "view_business",
      "target_id": "goog_ChIJL7UsBLfPupQRBTW2IO62Pzg",
      "details": {
        "name": "La Pizza uberaba Pizzaria"
      },
      "timestamp": 1764474950316,
      "id": "9p3xbxnlvpv"
    },
    {
      "uid": "mMdv0j8xeNNfrPBHC7fS2mxVwpy2",
      "action_type": "view_business",
      "target_id": "goog_ChIJU0NlDHPRupQRjL91lEYMqxQ",
      "details": {
        "name": "Sabor da Massa"
      },
      "timestamp": 1764474950328,
      "id": "vmchnlqgbjn"
    },
    {
      "uid": "mMdv0j8xeNNfrPBHC7fS2mxVwpy2",
      "action_type": "view_business",
      "target_id": "goog_ChIJL7UsBLfPupQRBTW2IO62Pzg",
      "details": {
        "name": "La Pizza uberaba Pizzaria"
      },
      "timestamp": 1764475010161,
      "id": "ah3s0eikpq"
    },
    {
      "uid": "mMdv0j8xeNNfrPBHC7fS2mxVwpy2",
      "action_type": "view_business",
      "target_id": "goog_ChIJU0NlDHPRupQRjL91lEYMqxQ",
      "details": {
        "name": "Sabor da Massa"
      },
      "timestamp": 1764475010185,
      "id": "vgcl2udr828"
    },
    {
      "uid": "mMdv0j8xeNNfrPBHC7fS2mxVwpy2",
      "action_type": "view_business",
      "target_id": "goog_ChIJU0NlDHPRupQRjL91lEYMqxQ",
      "details": {
        "name": "Sabor da Massa"
      },
      "timestamp": 1764475070152,
      "id": "x9j43jf0kqi"
    },
    {
      "uid": "mMdv0j8xeNNfrPBHC7fS2mxVwpy2",
      "action_type": "view_business",
      "target_id": "goog_ChIJL7UsBLfPupQRBTW2IO62Pzg",
      "details": {
        "name": "La Pizza uberaba Pizzaria"
      },
      "timestamp": 1764475130163,
      "id": "i8fxfjje8nf"
    },
    {
      "uid": "mMdv0j8xeNNfrPBHC7fS2mxVwpy2",
      "action_type": "view_business",
      "target_id": "goog_ChIJU0NlDHPRupQRjL91lEYMqxQ",
      "details": {
        "name": "Sabor da Massa"
      },
      "timestamp": 1764475130177,
      "id": "yw32rt0o2da"
    },
    {
      "uid": "mMdv0j8xeNNfrPBHC7fS2mxVwpy2",
      "action_type": "view_business",
      "target_id": "goog_ChIJU0NlDHPRupQRjL91lEYMqxQ",
      "details": {
        "name": "Sabor da Massa"
      },
      "timestamp": 1764475190150,
      "id": "1gw17dippac"
    },
    {
      "uid": "mMdv0j8xeNNfrPBHC7fS2mxVwpy2",
      "action_type": "view_business",
      "target_id": "goog_ChIJU0NlDHPRupQRjL91lEYMqxQ",
      "details": {
        "name": "Sabor da Massa"
      },
      "timestamp": 1764475250207,
      "id": "92wbxg7d11r"
    },
    {
      "uid": "mMdv0j8xeNNfrPBHC7fS2mxVwpy2",
      "action_type": "view_business",
      "target_id": "goog_ChIJU0NlDHPRupQRjL91lEYMqxQ",
      "details": {
        "name": "Sabor da Massa"
      },
      "timestamp": 1764475251539,
      "id": "hdiw5i3xirv"
    },
    {
      "uid": "mMdv0j8xeNNfrPBHC7fS2mxVwpy2",
      "action_type": "view_business",
      "target_id": "goog_ChIJL7UsBLfPupQRBTW2IO62Pzg",
      "details": {
        "name": "La Pizza uberaba Pizzaria"
      },
      "timestamp": 1764475251563,
      "id": "lbckzov4la"
    },
    {
      "uid": "mMdv0j8xeNNfrPBHC7fS2mxVwpy2",
      "action_type": "view_business",
      "target_id": "goog_ChIJL7UsBLfPupQRBTW2IO62Pzg",
      "details": {
        "name": "La Pizza uberaba Pizzaria"
      },
      "timestamp": 1764475311387,
      "id": "dryj2gq1tjk"
    },
    {
      "uid": "mMdv0j8xeNNfrPBHC7fS2mxVwpy2",
      "action_type": "view_business",
      "target_id": "goog_ChIJU0NlDHPRupQRjL91lEYMqxQ",
      "details": {
        "name": "Sabor da Massa"
      },
      "timestamp": 1764475311411,
      "id": "nvhpm9nj68b"
    },
    {
      "uid": "mMdv0j8xeNNfrPBHC7fS2mxVwpy2",
      "action_type": "view_business",
      "target_id": "goog_ChIJU0NlDHPRupQRjL91lEYMqxQ",
      "details": {
        "name": "Sabor da Massa"
      },
      "timestamp": 1764475371366,
      "id": "cecfcj0f9sj"
    },
    {
      "uid": "mMdv0j8xeNNfrPBHC7fS2mxVwpy2",
      "action_type": "view_business",
      "target_id": "goog_ChIJL7UsBLfPupQRBTW2IO62Pzg",
      "details": {
        "name": "La Pizza uberaba Pizzaria"
      },
      "timestamp": 1764475431373,
      "id": "ei3ik7qfsu"
    },
    {
      "uid": "mMdv0j8xeNNfrPBHC7fS2mxVwpy2",
      "action_type": "view_business",
      "target_id": "goog_ChIJU0NlDHPRupQRjL91lEYMqxQ",
      "details": {
        "name": "Sabor da Massa"
      },
      "timestamp": 1764475431392,
      "id": "6l3mvyhws7"
    },
    {
      "uid": "mMdv0j8xeNNfrPBHC7fS2mxVwpy2",
      "action_type": "view_business",
      "target_id": "goog_ChIJL7UsBLfPupQRBTW2IO62Pzg",
      "details": {
        "name": "La Pizza uberaba Pizzaria"
      },
      "timestamp": 1764475491447,
      "id": "lpsww8px6k"
    },
    {
      "uid": "mMdv0j8xeNNfrPBHC7fS2mxVwpy2",
      "action_type": "view_business",
      "target_id": "goog_ChIJL7UsBLfPupQRBTW2IO62Pzg",
      "details": {
        "name": "La Pizza uberaba Pizzaria"
      },
      "timestamp": 1764475538897,
      "id": "jvme2vczy1"
    },
    {
      "uid": "mMdv0j8xeNNfrPBHC7fS2mxVwpy2",
      "action_type": "view_business",
      "target_id": "goog_ChIJU0NlDHPRupQRjL91lEYMqxQ",
      "details": {
        "name": "Sabor da Massa"
      },
      "timestamp": 1764475538918,
      "id": "59ewwtf8hi2"
    },
    {
      "uid": "mMdv0j8xeNNfrPBHC7fS2mxVwpy2",
      "action_type": "view_business",
      "target_id": "goog_ChIJL7UsBLfPupQRBTW2IO62Pzg",
      "details": {
        "name": "La Pizza uberaba Pizzaria"
      },
      "timestamp": 1764475598764,
      "id": "9mkddb7i5b8"
    },
    {
      "uid": "mMdv0j8xeNNfrPBHC7fS2mxVwpy2",
      "action_type": "view_business",
      "target_id": "goog_ChIJU0NlDHPRupQRjL91lEYMqxQ",
      "details": {
        "name": "Sabor da Massa"
      },
      "timestamp": 1764475598814,
      "id": "nvoz71p897"
    },
    {
      "uid": "mMdv0j8xeNNfrPBHC7fS2mxVwpy2",
      "action_type": "view_business",
      "target_id": "goog_ChIJL7UsBLfPupQRBTW2IO62Pzg",
      "details": {
        "name": "La Pizza uberaba Pizzaria"
      },
      "timestamp": 1764475658768,
      "id": "qebwe4l3ff8"
    },
    {
      "uid": "mMdv0j8xeNNfrPBHC7fS2mxVwpy2",
      "action_type": "view_business",
      "target_id": "goog_ChIJU0NlDHPRupQRjL91lEYMqxQ",
      "details": {
        "name": "Sabor da Massa"
      },
      "timestamp": 1764475658805,
      "id": "7z5yzpm477h"
    },
    {
      "uid": "mMdv0j8xeNNfrPBHC7fS2mxVwpy2",
      "action_type": "view_business",
      "target_id": "goog_ChIJL7UsBLfPupQRBTW2IO62Pzg",
      "details": {
        "name": "La Pizza uberaba Pizzaria"
      },
      "timestamp": 1764475718776,
      "id": "xc7m2ho8zsr"
    },
    {
      "uid": "mMdv0j8xeNNfrPBHC7fS2mxVwpy2",
      "action_type": "view_business",
      "target_id": "goog_ChIJU0NlDHPRupQRjL91lEYMqxQ",
      "details": {
        "name": "Sabor da Massa"
      },
      "timestamp": 1764475718843,
      "id": "aw02ipk1e6a"
    },
    {
      "uid": "mMdv0j8xeNNfrPBHC7fS2mxVwpy2",
      "action_type": "view_business",
      "target_id": "goog_ChIJL7UsBLfPupQRBTW2IO62Pzg",
      "details": {
        "name": "La Pizza uberaba Pizzaria"
      },
      "timestamp": 1764475778758,
      "id": "8yew7f7u91"
    },
    {
      "uid": "mMdv0j8xeNNfrPBHC7fS2mxVwpy2",
      "action_type": "view_business",
      "target_id": "goog_ChIJU0NlDHPRupQRjL91lEYMqxQ",
      "details": {
        "name": "Sabor da Massa"
      },
      "timestamp": 1764475778796,
      "id": "nvs7qoyee"
    },
    {
      "uid": "mMdv0j8xeNNfrPBHC7fS2mxVwpy2",
      "action_type": "view_business",
      "target_id": "goog_ChIJL7UsBLfPupQRBTW2IO62Pzg",
      "details": {
        "name": "La Pizza uberaba Pizzaria"
      },
      "timestamp": 1764475838860,
      "id": "rwsklixm1uc"
    },
    {
      "uid": "mMdv0j8xeNNfrPBHC7fS2mxVwpy2",
      "action_type": "view_business",
      "target_id": "goog_ChIJU0NlDHPRupQRjL91lEYMqxQ",
      "details": {
        "name": "Sabor da Massa"
      },
      "timestamp": 1764475838940,
      "id": "25zxhjwykbn"
    },
    {
      "uid": "mMdv0j8xeNNfrPBHC7fS2mxVwpy2",
      "action_type": "view_business",
      "target_id": "goog_ChIJL7UsBLfPupQRBTW2IO62Pzg",
      "details": {
        "name": "La Pizza uberaba Pizzaria"
      },
      "timestamp": 1764475840456,
      "id": "hg3k1ugbo2c"
    },
    {
      "uid": "mMdv0j8xeNNfrPBHC7fS2mxVwpy2",
      "action_type": "view_business",
      "target_id": "goog_ChIJU0NlDHPRupQRjL91lEYMqxQ",
      "details": {
        "name": "Sabor da Massa"
      },
      "timestamp": 1764475840827,
      "id": "kmh2gzmohaq"
    },
    {
      "uid": "mMdv0j8xeNNfrPBHC7fS2mxVwpy2",
      "action_type": "view_business",
      "target_id": "goog_ChIJL7UsBLfPupQRBTW2IO62Pzg",
      "details": {
        "name": "La Pizza uberaba Pizzaria"
      },
      "timestamp": 1764475900152,
      "id": "plq0z7dja8r"
    },
    {
      "uid": "mMdv0j8xeNNfrPBHC7fS2mxVwpy2",
      "action_type": "view_business",
      "target_id": "goog_ChIJU0NlDHPRupQRjL91lEYMqxQ",
      "details": {
        "name": "Sabor da Massa"
      },
      "timestamp": 1764475900190,
      "id": "3elcn82givi"
    },
    {
      "uid": "mMdv0j8xeNNfrPBHC7fS2mxVwpy2",
      "action_type": "view_business",
      "target_id": "goog_ChIJL7UsBLfPupQRBTW2IO62Pzg",
      "details": {
        "name": "La Pizza uberaba Pizzaria"
      },
      "timestamp": 1764475960172,
      "id": "jidtq1e1bmi"
    },
    {
      "uid": "mMdv0j8xeNNfrPBHC7fS2mxVwpy2",
      "action_type": "view_business",
      "target_id": "goog_ChIJU0NlDHPRupQRjL91lEYMqxQ",
      "details": {
        "name": "Sabor da Massa"
      },
      "timestamp": 1764475960194,
      "id": "x4vx65nei1"
    },
    {
      "uid": "mMdv0j8xeNNfrPBHC7fS2mxVwpy2",
      "action_type": "view_business",
      "target_id": "goog_ChIJL7UsBLfPupQRBTW2IO62Pzg",
      "details": {
        "name": "La Pizza uberaba Pizzaria"
      },
      "timestamp": 1764476020176,
      "id": "v8r98lhuhh"
    },
    {
      "uid": "mMdv0j8xeNNfrPBHC7fS2mxVwpy2",
      "action_type": "view_business",
      "target_id": "goog_ChIJU0NlDHPRupQRjL91lEYMqxQ",
      "details": {
        "name": "Sabor da Massa"
      },
      "timestamp": 1764476020223,
      "id": "yhkl6w4m5e"
    },
    {
      "uid": "mMdv0j8xeNNfrPBHC7fS2mxVwpy2",
      "action_type": "view_business",
      "target_id": "goog_ChIJL7UsBLfPupQRBTW2IO62Pzg",
      "details": {
        "name": "La Pizza uberaba Pizzaria"
      },
      "timestamp": 1764476080173,
      "id": "slcseva4p6s"
    },
    {
      "uid": "mMdv0j8xeNNfrPBHC7fS2mxVwpy2",
      "action_type": "view_business",
      "target_id": "goog_ChIJU0NlDHPRupQRjL91lEYMqxQ",
      "details": {
        "name": "Sabor da Massa"
      },
      "timestamp": 1764476080209,
      "id": "4x7dnchpdn"
    },
    {
      "uid": "mMdv0j8xeNNfrPBHC7fS2mxVwpy2",
      "action_type": "view_business",
      "target_id": "goog_ChIJL7UsBLfPupQRBTW2IO62Pzg",
      "details": {
        "name": "La Pizza uberaba Pizzaria"
      },
      "timestamp": 1764476140206,
      "id": "rfbzg2ix5t"
    },
    {
      "uid": "mMdv0j8xeNNfrPBHC7fS2mxVwpy2",
      "action_type": "view_business",
      "target_id": "goog_ChIJU0NlDHPRupQRjL91lEYMqxQ",
      "details": {
        "name": "Sabor da Massa"
      },
      "timestamp": 1764476140254,
      "id": "z31cu5ziane"
    },
    {
      "uid": "mMdv0j8xeNNfrPBHC7fS2mxVwpy2",
      "action_type": "view_business",
      "target_id": "goog_ChIJU0NlDHPRupQRjL91lEYMqxQ",
      "details": {
        "name": "Sabor da Massa"
      },
      "timestamp": 1764476141256,
      "id": "8hgvim9y09h"
    },
    {
      "uid": "mMdv0j8xeNNfrPBHC7fS2mxVwpy2",
      "action_type": "view_business",
      "target_id": "goog_ChIJL7UsBLfPupQRBTW2IO62Pzg",
      "details": {
        "name": "La Pizza uberaba Pizzaria"
      },
      "timestamp": 1764476141293,
      "id": "84cwjnkrbur"
    },
    {
      "uid": "mMdv0j8xeNNfrPBHC7fS2mxVwpy2",
      "action_type": "view_business",
      "target_id": "goog_ChIJU0NlDHPRupQRjL91lEYMqxQ",
      "details": {
        "name": "Sabor da Massa"
      },
      "timestamp": 1764476201134,
      "id": "bxk5k9zd6wo"
    },
    {
      "uid": "mMdv0j8xeNNfrPBHC7fS2mxVwpy2",
      "action_type": "view_business",
      "target_id": "goog_ChIJL7UsBLfPupQRBTW2IO62Pzg",
      "details": {
        "name": "La Pizza uberaba Pizzaria"
      },
      "timestamp": 1764476201151,
      "id": "au8f1hf588b"
    },
    {
      "uid": "mMdv0j8xeNNfrPBHC7fS2mxVwpy2",
      "action_type": "view_business",
      "target_id": "goog_ChIJU0NlDHPRupQRjL91lEYMqxQ",
      "details": {
        "name": "Sabor da Massa"
      },
      "timestamp": 1764476261135,
      "id": "1vkgze3twet"
    },
    {
      "uid": "mMdv0j8xeNNfrPBHC7fS2mxVwpy2",
      "action_type": "view_business",
      "target_id": "goog_ChIJL7UsBLfPupQRBTW2IO62Pzg",
      "details": {
        "name": "La Pizza uberaba Pizzaria"
      },
      "timestamp": 1764476261152,
      "id": "sqngw0xgcx"
    },
    {
      "uid": "mMdv0j8xeNNfrPBHC7fS2mxVwpy2",
      "action_type": "view_business",
      "target_id": "goog_ChIJU0NlDHPRupQRjL91lEYMqxQ",
      "details": {
        "name": "Sabor da Massa"
      },
      "timestamp": 1764476321134,
      "id": "opnzqj8vas"
    },
    {
      "uid": "mMdv0j8xeNNfrPBHC7fS2mxVwpy2",
      "action_type": "view_business",
      "target_id": "goog_ChIJL7UsBLfPupQRBTW2IO62Pzg",
      "details": {
        "name": "La Pizza uberaba Pizzaria"
      },
      "timestamp": 1764476321149,
      "id": "h8zvqxyqb7j"
    },
    {
      "uid": "mMdv0j8xeNNfrPBHC7fS2mxVwpy2",
      "action_type": "view_business",
      "target_id": "goog_ChIJU0NlDHPRupQRjL91lEYMqxQ",
      "details": {
        "name": "Sabor da Massa"
      },
      "timestamp": 1764476381153,
      "id": "47jio4zzefg"
    },
    {
      "uid": "mMdv0j8xeNNfrPBHC7fS2mxVwpy2",
      "action_type": "view_business",
      "target_id": "goog_ChIJL7UsBLfPupQRBTW2IO62Pzg",
      "details": {
        "name": "La Pizza uberaba Pizzaria"
      },
      "timestamp": 1764476381171,
      "id": "w6wxbkcfhq"
    },
    {
      "uid": "mMdv0j8xeNNfrPBHC7fS2mxVwpy2",
      "action_type": "view_business",
      "target_id": "goog_ChIJU0NlDHPRupQRjL91lEYMqxQ",
      "details": {
        "name": "Sabor da Massa"
      },
      "timestamp": 1764476441148,
      "id": "77zne5objyl"
    },
    {
      "uid": "mMdv0j8xeNNfrPBHC7fS2mxVwpy2",
      "action_type": "view_business",
      "target_id": "goog_ChIJL7UsBLfPupQRBTW2IO62Pzg",
      "details": {
        "name": "La Pizza uberaba Pizzaria"
      },
      "timestamp": 1764476441164,
      "id": "d5ykwqtzdhn"
    },
    {
      "uid": "mMdv0j8xeNNfrPBHC7fS2mxVwpy2",
      "action_type": "view_business",
      "target_id": "goog_ChIJL7UsBLfPupQRBTW2IO62Pzg",
      "details": {
        "name": "La Pizza uberaba Pizzaria"
      },
      "timestamp": 1764476442386,
      "id": "rc7xzxota3e"
    },
    {
      "uid": "mMdv0j8xeNNfrPBHC7fS2mxVwpy2",
      "action_type": "view_business",
      "target_id": "goog_ChIJU0NlDHPRupQRjL91lEYMqxQ",
      "details": {
        "name": "Sabor da Massa"
      },
      "timestamp": 1764476442419,
      "id": "fdgf6x1ivkt"
    },
    {
      "uid": "mMdv0j8xeNNfrPBHC7fS2mxVwpy2",
      "action_type": "view_business",
      "target_id": "goog_ChIJL7UsBLfPupQRBTW2IO62Pzg",
      "details": {
        "name": "La Pizza uberaba Pizzaria"
      },
      "timestamp": 1764476502223,
      "id": "s6u8i1a8k6s"
    },
    {
      "uid": "mMdv0j8xeNNfrPBHC7fS2mxVwpy2",
      "action_type": "view_business",
      "target_id": "goog_ChIJU0NlDHPRupQRjL91lEYMqxQ",
      "details": {
        "name": "Sabor da Massa"
      },
      "timestamp": 1764476502236,
      "id": "xq2xps0qjs"
    },
    {
      "uid": "mMdv0j8xeNNfrPBHC7fS2mxVwpy2",
      "action_type": "view_business",
      "target_id": "goog_ChIJL7UsBLfPupQRBTW2IO62Pzg",
      "details": {
        "name": "La Pizza uberaba Pizzaria"
      },
      "timestamp": 1764476562225,
      "id": "1zxhz43n238"
    },
    {
      "uid": "mMdv0j8xeNNfrPBHC7fS2mxVwpy2",
      "action_type": "view_business",
      "target_id": "goog_ChIJU0NlDHPRupQRjL91lEYMqxQ",
      "details": {
        "name": "Sabor da Massa"
      },
      "timestamp": 1764476562238,
      "id": "driz0xmb1cn"
    },
    {
      "uid": "mMdv0j8xeNNfrPBHC7fS2mxVwpy2",
      "action_type": "view_business",
      "target_id": "goog_ChIJL7UsBLfPupQRBTW2IO62Pzg",
      "details": {
        "name": "La Pizza uberaba Pizzaria"
      },
      "timestamp": 1764476622226,
      "id": "a0rlkomw3zm"
    },
    {
      "uid": "mMdv0j8xeNNfrPBHC7fS2mxVwpy2",
      "action_type": "view_business",
      "target_id": "goog_ChIJU0NlDHPRupQRjL91lEYMqxQ",
      "details": {
        "name": "Sabor da Massa"
      },
      "timestamp": 1764476622244,
      "id": "lefsx65678"
    },
    {
      "uid": "wtQq6Cv5zxc6DwrXpXFpAWpI36F2",
      "action_type": "view_business",
      "target_id": "goog_ChIJlxD8htnRupQRhM9A7mLCnb8",
      "details": {
        "name": "Simon Car Oficina Mec√¢nica Multimarcas Alinhamento e Balanceamento"
      },
      "timestamp": 1764637189555,
      "id": "g2d0irvcjy7"
    },
    {
      "uid": "wtQq6Cv5zxc6DwrXpXFpAWpI36F2",
      "action_type": "view_business",
      "target_id": "goog_ChIJlxD8htnRupQRhM9A7mLCnb8",
      "details": {
        "name": "Simon Car Oficina Mec√¢nica Multimarcas Alinhamento e Balanceamento"
      },
      "timestamp": 1764637201539,
      "id": "ww2id34pzym"
    },
    {
      "uid": "wtQq6Cv5zxc6DwrXpXFpAWpI36F2",
      "action_type": "view_business",
      "target_id": "goog_ChIJlxD8htnRupQRhM9A7mLCnb8",
      "details": {
        "name": "Simon Car Oficina Mec√¢nica Multimarcas Alinhamento e Balanceamento"
      },
      "timestamp": 1764637216460,
      "id": "4695jjz2svs"
    }
  ],
  "votes": [
    {
      "business_id": "1765673831884",
      "user_id": "1764155350027",
      "type": "like",
      "timestamp": 1765673831915,
      "id": "7xcwl9mehxp"
    },
    {
      "business_id": "1765674720996",
      "user_id": "1764155350027",
      "type": "like",
      "timestamp": 1765674721010,
      "id": "b379yktjxns"
    }
  ]
}